X,Y,OBJECTID,name,operator,owner,address,is24Hours,carParkCount,hasCarparkCost,maxTimeLimit,hasTouristAttraction,latitude,longitude,currentType,dateFirstOperational,numberOfConnectors,connectorsList,hasChargingCost,GlobalID
1366541.2354,5153202.1642,109092,YHA MT COOK,MERIDIAN ENERGY LIMITED,MERIDIAN ENERGY LIMITED,"4 Kitchener Dr, Mount Cook National Park 7999, New Zealand",True,1,False,Unlimited,False,-43.73745,170.100913,AC,2020/05/01 00:00:00+00,1,"{AC, 22 kW, Type 2 Socketed, Status: Operative, Count:1}",True,{CC52A362-5C3F-4C8F-8D2D-2ECE92AD0336}
1186140.2023,4957354.9591,109093,YHA TE ANAU,MERIDIAN ENERGY LIMITED,MERIDIAN ENERGY LIMITED,"29 Mokonui St, Te Anau 9600, New Zealand",True,2,False,Unlimited,False,-45.4147023,167.710591,AC,2020/05/01 00:00:00+00,1,"{AC, 22 kW, Type 2 Socketed, Status: Operative, Count:1}",True,{61A3D3C5-DDBB-49EC-9F55-2E298463A968}
1758984.8781,5916769.1139,109094,NZ BLOOD SERVICE,MERIDIAN ENERGY LIMITED,MERIDIAN ENERGY LIMITED,"71 Great South Road, Epsom, Auckland 1051",False,4,False,Unlimited,False,-36.8816643029201,174.783985143939,AC,2019/10/12 00:00:00+00,4,"{AC, 44 kW, Type 2 Socketed, Status: Operative, Count:4}",False,{39F090D2-BC45-4C6C-9B54-1DD02594E8D1}
1784244.7242,5863764.2899,109095,Hampton Downs,WEL Networks Ltd,WEL Networks Ltd,"20 Hampton Downs Road, Hampton Downs",True,2,False,Unlimited,True,-37.3545575081454,175.080300240821,DC,2018/01/01 00:00:00+00,3,"{DC, 50 kW, Type 2 Tethered, Status: Operative, Count:1},{DC, 50 kW, Type 2 CCS, Status: Operative, Count:1},{DC, 50 kW, CHAdeMO, Status: Operative, Count:1}",True,{BF0281BD-25D2-43EF-9923-1864A6371C5B}
1795854.6037,5821625.9065,109096,Maui Street,WEL Networks Ltd,WEL Networks Ltd,"114 Maui St, Pukete",True,2,False,Unlimited,False,-37.7317137166904,175.222543851019,DC,2018/01/01 00:00:00+00,3,"{DC, 50 kW, Type 2 Tethered, Status: Operative, Count:1},{DC, 50 kW, Type 2 CCS, Status: Operative, Count:1},{DC, 50 kW, CHAdeMO, Status: Operative, Count:1}",True,{C9C22250-7ACD-406E-B00C-E86B29CD6124}
1802446.4096,5816265.1687,109097,Claudelands,WEL Networks Ltd,WEL Networks Ltd,"160 Peachgrove Road, Hamilton East",True,3,False,Unlimited,False,-37.7785588433362,175.298786948482,Mixed,2018/01/01 00:00:00+00,5,"{DC, 25 kW, Type 2 CCS, Status: Operative, Count:2},{DC, 25 kW, CHAdeMO, Status: Operative, Count:2},{AC, 22 kW, Type 2 Socketed, Status: Operative, Count:1}",False,{C2FA3AEA-A894-4F5A-8016-9D83B42A6664}
1804444.2343,5805314.9952,109098,Mystery Creek,WEL Networks Ltd,WEL Networks Ltd,"153 Ingram Road, Waitomo Fuel,  Mystery Creek",True,2,False,Unlimited,False,-37.876728596303,175.324548424172,DC,2018/01/01 00:00:00+00,3,"{DC, 50 kW, Type 2 Tethered, Status: Operative, Count:1},{DC, 50 kW, Type 2 CCS, Status: Operative, Count:1},{DC, 50 kW, CHAdeMO, Status: Operative, Count:1}",True,{B8B90E2E-54A5-4D61-9637-1EFA67C9F6DB}
1790627.8067,5840290.9699,109099,Huntly,WEL Networks Ltd,WEL Networks Ltd,"20 Tumate Mahuta Drive, Huntly",True,3,False,Unlimited,False,-37.5647004263661,175.158396850283,Mixed,2018/01/01 00:00:00+00,5,"{DC, 25 kW, Type 2 CCS, Status: Operative, Count:2},{DC, 25 kW, CHAdeMO, Status: Operative, Count:2},{AC, 7 kW, Type 2 Socketed, Status: Operative, Count:1}",False,{090F2DC4-789B-4EF9-BDA0-167957D68B3F}
1788279.2473,5857234.3983,109100,Te Kauwhata,WEL Networks Ltd,WEL Networks Ltd,"16 Wayside Road, Te Kauwhata",True,2,False,Unlimited,False,-37.4125665624,175.127487397762,DC,2018/01/01 00:00:00+00,3,"{DC, 50 kW, Type 2 Tethered, Status: Operative, Count:1},{DC, 50 kW, Type 2 CCS, Status: Operative, Count:1},{DC, 50 kW, CHAdeMO, Status: Operative, Count:1}",True,{A15CE6BB-F578-4A92-8AE7-24DA674ACC17}
1800352.3397,5821493.6165,109101,St James,WEL Networks Ltd,WEL Networks Ltd,"23 Horsham Downs Road, Rototuna",True,3,False,Unlimited,False,-37.7319320139187,175.273583803848,Mixed,2018/01/01 00:00:00+00,5,"{DC, 25 kW, Type 2 CCS, Status: Operative, Count:2},{DC, 25 kW, CHAdeMO, Status: Operative, Count:2},{AC, 22 kW, Type 2 Socketed, Status: Operative, Count:1}",False,{EDD3E8A0-5155-488F-88D2-F22B53BFB4F3}
1800878.0159,5815217.0934,109102,Caro Street,WEL Networks Ltd,WEL Networks Ltd,"4 Caro St, Hamilton",True,2,False,Unlimited,False,-37.7883439028825,175.28128105207,DC,2018/01/01 00:00:00+00,3,"{DC, 50 kW, Type 2 Tethered, Status: Operative, Count:1},{DC, 50 kW, Type 2 CCS, Status: Operative, Count:1},{DC, 50 kW, CHAdeMO, Status: Operative, Count:1}",True,{EA5BDA7C-ACF3-4BFD-BC96-906E975174DF}
1798967.8596,5822584.0905,109103,Rototuna North,WEL Networks Ltd,WEL Networks Ltd,"3 Fergy Place, Rototuna North, Hamilton 3210",True,3,False,Unlimited,False,-37.7224127829775,175.257585760048,Mixed,2018/01/01 00:00:00+00,5,"{DC, 25 kW, Type 2 CCS, Status: Operative, Count:2},{DC, 25 kW, CHAdeMO, Status: Operative, Count:2},{AC, 22 kW, Type 2 Socketed, Status: Operative, Count:1}",False,{40CB5533-3DE8-474E-BE3A-0CB9B74994CD}
1764660.0144,5814695.6629,109104,Raglan,WEL Networks Ltd,WEL Networks Ltd,"43 Bow St, Raglan",True,2,False,Unlimited,True,-37.8002868100065,174.870311446816,DC,2018/01/01 00:00:00+00,3,"{DC, 50 kW, Type 2 Tethered, Status: Operative, Count:1},{DC, 50 kW, Type 2 CCS, Status: Operative, Count:1},{DC, 50 kW, CHAdeMO, Status: Operative, Count:1}",True,{393995D3-5923-457F-86FA-D1FC890F2070}
1801312.546,5814620.5569,109105,Hamilton South,WEL Networks Ltd,WEL Networks Ltd,"58 Anglesea Street, Hamilton",True,3,False,Unlimited,False,-37.7936206972454,175.286377835335,Mixed,2018/01/01 00:00:00+00,5,"{DC, 25 kW, Type 2 CCS, Status: Operative, Count:2},{DC, 25 kW, CHAdeMO, Status: Operative, Count:2},{AC, 22 kW, Type 2 Socketed, Status: Operative, Count:1}",False,{E8191EBE-4B64-414B-AF97-87F7201C56EB}
1800280.3746,5815967.0821,109106,Hamilton North,WEL Networks Ltd,WEL Networks Ltd,"551 Anglesea Street, Hamilton",True,3,False,Unlimited,False,-37.7817206103916,175.274291725517,Mixed,2018/01/01 00:00:00+00,5,"{DC, 25 kW, Type 2 CCS, Status: Operative, Count:2},{DC, 25 kW, CHAdeMO, Status: Operative, Count:2},{AC, 22 kW, Type 2 Socketed, Status: Operative, Count:1}",False,{B0CA4A83-9D40-49E0-B62F-DEBF47A5F899}
1803332.359,5816303.7716,109107,Innovation Park,WEL Networks Ltd,WEL Networks Ltd,"9 Melody Lane, Hamilton East",True,2,False,Unlimited,False,-37.778014543995,175.308828634049,DC,2018/01/01 00:00:00+00,3,"{DC, 50 kW, Type 2 Tethered, Status: Operative, Count:1},{DC, 50 kW, Type 2 CCS, Status: Operative, Count:1},{DC, 50 kW, CHAdeMO, Status: Operative, Count:1}",True,{B91B6FE4-E01E-455A-A131-58101B7520A5}
1770264.2221,5907313.6914,109108,Ormiston Town Centre,Todd Property Ormiston Town Centre Limited,Todd Property Ormiston Town Centre Limited,"240 Ormiston road, Flat Bush, Auckland, 2012, New Zealand",True,14,False,Unlimited,False,-36.9648860428412,174.912617279983,AC,2021/03/25 00:00:00+00,14,"{AC, 32 kW, Type 2 Socketed, Status: Operative, Count:9},{AC, 32 kW, Type 1 Tethered, Status: Operative, Count:4},{AC, 25 kW, Type 2 Socketed, Status: Operative, Count:1}",False,{A763A10B-734C-4A6C-BAF2-18F6D6B9B5B9}
1803264.1843,5816289.5839,109109,Waikato Innovation Park,Hikotron,Hikotron,"Waikato Innovation Park, 1 Melody Lane, Hamilton East, Hamilton 3216",True,4,False,No Limit,False,-37.7781574798876,175.30805906559,AC,,4,"{AC, 7 kW, Type 2 Socketed, Status: Operative, Count:4}",True,{DE55E4E3-2446-4F0C-A4D3-2154B1CF6BC7}
1804119.0672,5790736.0755,109110,Te Awamutu Events Centre,Hikotron,Hikotron,"Events Centre Car Park Mahoe Street, Te Awamutu 3800",True,4,False,No Limit,False,-38.0080929,175.3249891,AC,,4,"{AC, 7 kW, Type 2 Socketed, Status: Operative, Count:4}",True,{9D27EB18-9119-45C2-8220-871FDCEEB8B9}
1798859.71,5815292.2613,109111,Hamilton Electric Vehicles,Hikotron,Hikotron,"Cnr West Street and, Lincoln Street, Frankton, Hamilton 3200",True,2,False,No Limit,False,-37.7881084019164,175.258355890002,AC,,2,"{AC, 7 kW, Type 2 Socketed, Status: Operative, Count:2}",True,{001BC4C0-1A16-41F0-9553-DCEFD8977E8B}
1800775.8201,5814683.7155,109112,Colonial City Motel,Hikotron,Hikotron,"2 Pembroke Lane, Hamilton Lake, Hamilton 3204",True,2,False,No Limit,False,-37.79317,175.280269,AC,,2,"{AC, 7 kW, Type 2 Socketed, Status: Operative, Count:2}",True,{749A227A-E196-4EB0-BB57-DAA9F01910BA}
1811007.7497,5813085.9045,109113,Matangi Factory,Hikotron,Hikotron,"452 Tauwhare Road, Tamahere 3284",True,2,False,No Limit,False,-37.805253,175.39685,AC,,2,"{AC, 7 kW, Type 2 Socketed, Status: Operative, Count:2}",True,{06A8474E-AFC4-457B-81C5-74AFBA6DCBF8}
1817311.152,5803065.6632,109114,Cambridge Duke St Carpark,Hikotron,Hikotron,"Duke Street Car Park 88 Alpha Street, Cambridge 3434",True,4,False,No Limit,False,-37.8940045,175.4714022,AC,,4,"{AC, 7 kW, Type 2 Socketed, Status: Operative, Count:4}",True,{CAB3D488-5ACD-4257-914F-8486E60682F8}
1756747.6382,5920460.8048,109115,WELLESLEY STREET CARPARK,MERIDIAN ENERGY LIMITED,MERIDIAN ENERGY LIMITED,"125 Wellesley Street West, Auckland 1010",False,9,True,Unlimited,False,-36.8487749421273,174.758129160788,AC,2022/12/20 00:00:00+00,9,"{AC, 22 kW, Type 2 Socketed, Status: Operative, Count:6},{AC, 44 kW, Type 2 Socketed, Status: Operative, Count:2},{AC, 11 kW, Type 2 Socketed, Status: Operative, Count:1}",False,{86E55CFB-3823-4B61-B4C0-9A02475260C6}
1549758.4417,5173315.0066,109116,Z Rolleston,Z Energy,Z Energy,"4 Brookside Road, Rolleston 7614, New Zealand",True,4,False,Unlimited,False,-43.591442,172.3776,DC,2022/05/12 00:00:00+00,6,"{DC, 50 kW, Type 2 CCS, Status: Operative, Count:2},{DC, 180 kW, Type 2 CCS, Status: Operative, Count:2},{DC, 50 kW, CHAdeMO, Status: Operative, Count:2}",True,{FAB07923-95A4-4159-A86C-D4FA06791992}
1569475.5704,5179143.8431,109117,Z Moorhouse,Z Energy,Z Energy,"40 Moorhouse Avenue, Half Moon Bay, Christchurch 8011, New Zealand",True,2,False,Unlimited,False,-43.540028,172.62218,DC,2022/11/23 00:00:00+00,2,"{DC, 75 kW, CHAdeMO, Status: Operative, Count:1},{DC, 75 kW, Type 2 CCS, Status: Operative, Count:1}",True,{997C5B8B-714C-44B2-B57C-7DF1BCD355E3}
1770224.9188,5911070.0859,109118,Z Botany Downs,Z Energy,Z Energy,"550 Te Irirangi Drive, Botany Downs, Auckland 2013, New Zealand",True,2,False,Unlimited,False,-36.93105,174.91133,DC,2022/12/01 00:00:00+00,2,"{DC, 50 kW, CHAdeMO, Status: Operative, Count:1},{DC, 50 kW, Type 2 CCS, Status: Operative, Count:1}",True,{A4C970DF-9B1A-41DE-92DB-D19BE9DAD6B7}
1843446.904,5680518.1804,109119,Z Turangi,Z Energy,Z Energy,"Cnr State Highway One and, Pihanga Rd, Turangi 3334, New Zealand",True,2,False,Unlimited,False,-38.990505,175.81082,DC,2022/10/27 00:00:00+00,2,"{DC, 75 kW, CHAdeMO, Status: Operative, Count:1},{DC, 75 kW, Type 2 CCS, Status: Operative, Count:1}",True,{DCD52F90-E49A-4F82-AD3A-C40895D89560}
1756680.8558,5434868.0521,109120,Z Petone,Z Energy,Z Energy,"Cnr Jackson Street and Hutt Road, Petone, Wellington 5012, New Zealand",True,2,False,Unlimited,False,-41.222412,174.86925,DC,2022/12/08 00:00:00+00,2,"{DC, 50 kW, CHAdeMO, Status: Operative, Count:1},{DC, 50 kW, Type 2 CCS, Status: Operative, Count:1}",True,{33D16EAC-4553-4E20-AB09-6F47664DD2A6}
1758209.9465,5920334.7573,109121,Z Beach Road,Z Energy,Z Energy,"150 Beach Road, Parnell, Auckland 1010, New Zealand",True,2,False,Unlimited,False,-36.849667,174.77455,DC,2022/10/28 00:00:00+00,2,"{DC, 50 kW, CHAdeMO, Status: Operative, Count:1},{DC, 50 kW, Type 2 CCS, Status: Operative, Count:1}",True,{A510C0BB-0BCB-4375-BFE3-E6876BF5CE0B}
1748540.2535,5427050.8064,109122,Z Vivian Street,Z Energy,Z Energy,"174 Vivian Street, Te Aro, Wellington 6011, New Zealand",True,2,False,Unlimited,False,-41.29433,174.77408,DC,,2,"{DC, 50 kW, CHAdeMO, Status: Operative, Count:1},{DC, 50 kW, Type 2 CCS, Status: Operative, Count:1}",True,{08C3A6EA-2DB6-4D34-AB3D-5AB6DA668033}
1776104.7892,5447034.8337,109123,Z Remutaka,Z Energy,Z Energy,"1193 Fergusson Drive, North, Upper Hutt 5018, New Zealand",True,2,False,Unlimited,False,-41.1088938048998,175.09734600097,DC,2022/11/30 00:00:00+00,2,"{DC, 75 kW, CHAdeMO, Status: Operative, Count:1},{DC, 75 kW, Type 2 CCS, Status: Operative, Count:1}",True,{4BC02493-3A34-449D-A14B-B1677198A347}
1796508.4442,5819103.3913,109124,Z Rotokauri,Z Energy,Z Energy,"387 Wairere Drive, Burbush, Hamilton 3288, New Zealand",True,4,False,Unlimited,False,-37.7542925259544,175.230640477867,DC,2022/12/06 00:00:00+00,4,"{DC, 180 kW, Type 2 CCS, Status: Operative, Count:3},{DC, 180 kW, CHAdeMO, Status: Operative, Count:1}",True,{94BE5367-1957-437D-BA83-195590C928B7}
1873942.8769,5823368.3446,109125,Z Bethlehem,Z Energy,Z Energy,"253B State Highway 2, Bethlehem, Tauranga 3110, New Zealand",True,2,False,Unlimited,False,-37.6960080355836,176.107002452853,DC,2023/05/12 00:00:00+00,2,"{DC, 180 kW, Type 2 CCS, Status: Operative, Count:1},{DC, 180 kW, CHAdeMO, Status: Operative, Count:1}",True,{8CDA8725-156B-490D-B63C-E24B677FAAA9}
1748092.7767,5971259.1151,109126,Z Warkworth,Z Energy,Z Energy,"1 Hudson Road, Warkworth, Auckland, 0910, New Zealand",True,4,False,Unlimited,False,-36.3924156920627,174.651296943968,DC,2023/04/18 00:00:00+00,4,"{DC, 180 kW, Type 2 CCS, Status: Operative, Count:3},{DC, 180 kW, CHAdeMO, Status: Operative, Count:1}",True,{C17DF083-D95B-480A-8F0A-73EFAEE6F381}
1799914.2147,5813091.9056,109127,Z K Drive,Z Energy,Z Energy,"124-126 Kahikatea Drive, Melville, Hamilton 3206, New Zealand",True,2,False,Unlimited,False,-37.807694960581,175.270929673214,DC,,2,"{DC, 180 kW, Type 2 CCS, Status: Inoperative, Count:1},{DC, 180 kW, CHAdeMO, Status: Inoperative, Count:1}",True,{18C82117-785F-4ECE-8E9F-82FA125263A9}
1765845.7124,5907202.0232,109128,Z Hunters Corner,Z Energy,Z Energy,"72-76 East Tamaki Road, Papatoetoe, Auckland 2025, New Zealand",True,2,False,Unlimited,False,-36.9666811607786,174.863031849762,DC,2023/05/22 00:00:00+00,2,"{DC, 75 kW, CHAdeMO, Status: Operative, Count:1},{DC, 75 kW, Type 2 CCS, Status: Operative, Count:1}",True,{D4B08C7D-DBDA-471B-9978-2B6CFC67C067}
1788174.7012,5756051.8038,109129,Z Te Kuiti,Z Energy,Z Energy,"76 Te Kumi Road, Te Kuiti 3910, New Zealand",True,3,False,Unlimited,False,-38.3239195079783,175.152670531346,DC,2023/05/19 00:00:00+00,4,"{DC, 180 kW, Type 2 CCS, Status: Operative, Count:2},{DC, 50 kW, Type 2 CCS, Status: Operative, Count:1},{DC, 50 kW, CHAdeMO, Status: Operative, Count:1}",True,{6008B62C-0737-4FE4-A7B4-1D2E3175E060}
1816110.4799,5806095.8805,109130,Z Hautapu,Z Energy,Z Energy,"167 Victoria Road, RD1, Cambridge 3493, New Zealand",True,5,False,Unlimited,False,-37.8670039019647,175.456851829477,DC,,7,"{DC, 120 kW, Type 2 CCS, Status: Inoperative, Count:5},{DC, 120 kW, CHAdeMO, Status: Inoperative, Count:2}",True,{8335BEC9-F4D7-4F30-8298-121770240F71}
1738527.1476,5929045.1653,109131,Z Kumeu,Z Energy,Z Energy,"134-152 Main Road, Kumeu, Auckland 0810, New Zealand",True,4,False,Unlimited,False,-36.7742645462324,174.552272340274,DC,2023/05/15 00:00:00+00,4,"{DC, 180 kW, Type 2 CCS, Status: Operative, Count:3},{DC, 180 kW, CHAdeMO, Status: Operative, Count:1}",True,{D94F320E-BBE6-462E-AA9F-614124E59C22}
1766498.8906,5903544.215,109132,Z Wiri Station Road,Z Energy,Z Energy,"83 Wiri Station Road, Wiri, Manukau City 2104, New Zealand",True,4,False,Unlimited,False,-36.9995213491901,174.871172962801,DC,,4,"{DC, 180 kW, Type 2 CCS, Status: Inoperative, Count:3},{DC, 180 kW, CHAdeMO, Status: Inoperative, Count:1}",True,{FED1D2AA-9027-4634-B09E-EFB2D1C9C4F5}
1781397.1781,5872305.6806,109133,Mercer Service Station,Counties Energy,Counties Energy,"Mercer Service Centre, Mercer 2474",True,3,False,Unlimited,False,-37.2781760994634,175.046080125994,DC,2022/10/03 00:00:00+00,4,"{DC, 180 kW, CHAdeMO, Status: Operative, Count:1},{DC, 24 kW, Type 1 CCS, Status: Operative, Count:1},{DC, 24 kW, CHAdeMO, Status: Operative, Count:1},{DC, 180 kW, Type 1 CCS, Status: Operative, Count:1}",True,{E3FFBBF0-98E5-47F3-A3C1-9286C38A302F}
1757155.2977,5920831.1818,109134,Hobson Street Substation,Vector,Vector,"21 Hobson St,Auckland,1010",True,2,False,120,False,-36.84537,174.762623,DC,2016/02/06 00:00:00+00,4,"{DC, 50 kW, Type 2 CCS, Status: Operative, Count:2},{DC, 50 kW, CHAdeMO, Status: Operative, Count:1},{DC, 50 kW, CHAdeMO, Status: Inoperative, Count:1}",False,{8A80A440-5806-4717-9FD7-C3C0D628D95F}
1738681.7434,5928975.1048,109135,Kumeu New World,Vector,Vector,"120 State Highway,Auckland,Kumeu,0810",True,2,False,120,False,-36.7748732793906,174.554016839117,DC,2016/02/06 00:00:00+00,4,"{DC, 50 kW, Type 2 CCS, Status: Operative, Count:2},{DC, 50 kW, CHAdeMO, Status: Operative, Count:2}",False,{C10065B7-3F16-41F3-BB8A-211F1139C543}
1748825.5016,5969501.6226,109136,BP Connect Warkworth,Vector,Vector,"67 Auckland Road,Auckland,Warkworth,0910",True,1,False,120,False,-36.4081402,174.6598009,DC,2016/02/06 00:00:00+00,2,"{DC, 50 kW, Type 2 CCS, Status: Operative, Count:1},{DC, 50 kW, CHAdeMO, Status: Operative, Count:1}",False,{C8F4A737-EA32-44B0-A30D-A1A5A65DCAE3}
1758202.8285,5918162.0447,109137,Newmarket Substation,Vector,Vector,"Cnr Seccombes & Gillies Ave,Newmarket,Auckland,1023",True,3,False,120,False,-36.869245,174.774923,DC,2016/02/06 00:00:00+00,8,"{DC, 50 kW, Type 2 CCS, Status: Operative, Count:3},{DC, 50 kW, CHAdeMO, Status: Inoperative, Count:2},{DC, 50 kW, CHAdeMO, Status: Operative, Count:1},{DC, 3 kW, Type 1 Tethered, Status: Unknown, Count:1},{DC, 3 kW, Type 2 Tethered, Status: Unknown, Count:1}",False,{43F0A1CF-80B8-402B-A192-D25B53976BF0}
1757835.3997,5919053.9646,109138,Auckland Hospital Wilsons Car park ,Vector,Vector,"2 Park Road,Grafton,Auckland,Auckland,1023",True,1,False,120,False,-36.86127,174.770617,DC,2016/02/06 00:00:00+00,2,"{DC, 3 kW, Type 2 Tethered, Status: Unknown, Count:2}",False,{A55F56E6-B159-4230-9651-9C96F331C2EA}
1759908.8297,5915817.5482,109139,McDonalds Greenlane,Vector,Vector,"356/320 Great South Rd,Greenlane,Auckland,1051",True,2,False,120,False,-36.890082,174.794549,DC,2016/02/06 00:00:00+00,4,"{DC, 50 kW, Type 2 CCS, Status: Operative, Count:2},{DC, 50 kW, CHAdeMO, Status: Inoperative, Count:2}",False,{23C948F0-E592-4066-859D-A67629BD0A08}
1767895.4747,5903591.6009,109140,Vodafone Events Centre,Vector,Vector,"770 Great South Road,Wiri,Manukau",True,1,False,120,False,-36.998846,174.88685,DC,2016/02/06 00:00:00+00,2,"{DC, 3 kW, Type 1 Tethered, Status: Unknown, Count:1},{DC, 3 kW, Type 2 Tethered, Status: Unknown, Count:1}",False,{70FAD265-1976-49B3-BE07-BF2423BE9222}
1731121.0866,5909273.8131,109141,Piha Cafe ,Vector,Vector,"20 Seaview Road,Auckland,Piha,0772",True,1,False,120,False,-36.953491,174.472725,DC,2016/02/06 00:00:00+00,1,"{DC, 3 kW, Type 2 Socketed, Status: Unknown, Count:1}",False,{A99B5159-D43F-4219-B9C7-932A2E24939B}
1743836.428,5924072.8321,109142,Northwest Shopping Centre,Vector,Vector,"1/7 Fred Taylor Drive,Massey,Auckland",True,1,False,120,False,-36.81828,174.612684,DC,2016/02/06 00:00:00+00,2,"{DC, 3 kW, Type 2 Tethered, Status: Unknown, Count:2}",False,{3E428101-1F11-4FED-BEB2-DFEFC2DC3EBF}
1754891.9035,5931829.1557,109143,McDonalds Constellation Drive,Vector,Vector,"14-16 Constellation Drive,Rosedale,Auckland,Auckland,0632",True,2,False,120,False,-36.7466454,174.7350108,DC,2016/02/06 00:00:00+00,4,"{DC, 50 kW, Type 2 CCS, Status: Operative, Count:2},{DC, 50 kW, CHAdeMO, Status: Operative, Count:1},{DC, 50 kW, CHAdeMO, Status: Inoperative, Count:1}",False,{BEADAE9B-4E4C-4D99-BF28-513BBDA8EB4B}
1757975.496,5920870.6107,109144,Britomart Carpark,Vector,Vector,"88 Quay Street,Auckland",True,2,False,120,False,-36.844878,174.77181,DC,2016/02/06 00:00:00+00,3,"{DC, 3 kW, Type 1 Tethered, Status: Unknown, Count:2},{DC, 3 kW, Type 2 Tethered, Status: Unknown, Count:1}",False,{EA2978DD-3C87-4455-AB78-FFE763718D89}
1758096.0858,5918612.9593,109145,Vector,Vector,Vector,"101 Carlton Gore Road,Newmarket,Auckland",True,3,False,120,False,-36.8652,174.773632,DC,2016/02/06 00:00:00+00,3,"{DC, 3 kW, Type 1 Tethered, Status: Unknown, Count:2},{DC, 3 kW, Type 2 Tethered, Status: Unknown, Count:1}",False,{ABFA3B65-B048-4005-9C68-70ACDD31A30E}
1758433.8561,5919042.3489,109146,Auckland War Memorial Museum,Vector,Vector,"32 Museum Circuit,Parnell,Auckland,Auckland,1010",True,1,False,120,False,-36.8612744768493,174.777330052779,DC,2016/02/06 00:00:00+00,2,"{DC, 3 kW, Type 1 Tethered, Status: Unknown, Count:1},{DC, 3 kW, Type 2 Tethered, Status: Unknown, Count:1}",False,{CA0883EE-7AFA-4679-A94D-24771AD12F55}
1771854.9845,5897957.5542,109147,Takanini Village,Vector,Vector,"30 Walters Road,Takanini,Auckland,2112",True,1,False,120,False,-37.048889,174.932611,DC,2016/02/06 00:00:00+00,2,"{DC, 50 kW, Type 2 CCS, Status: Operative, Count:1},{DC, 50 kW, CHAdeMO, Status: Operative, Count:1}",False,{122E2D87-D1C4-40F4-8E35-FB1710623FFC}
1749372.6653,5945729.3652,109148,Kings Plant Barn,Vector,Vector,"17 Hibiscus Coast Highway,Silverdale,0993",True,2,False,120,False,-36.622275,174.6705,DC,2016/02/06 00:00:00+00,4,"{DC, 50 kW, Type 2 CCS, Status: Operative, Count:2},{DC, 50 kW, CHAdeMO, Status: Operative, Count:2}",False,{14886035-0C68-41F8-9D25-88BF714AF914}
1759076.4481,5903874.8332,109149,Auckland Airport Shopping Centre,Vector,Vector,"Cnr George Bolt Memorial Drive & John Goulter Drive,Auckland Airport,Auckland,2022",True,2,False,120,False,-36.997828,174.787725,DC,2016/02/06 00:00:00+00,6,"{DC, 50 kW, CHAdeMO, Status: Operative, Count:3},{DC, 50 kW, Type 2 CCS, Status: Operative, Count:3}",False,{4EF33878-3FF0-4A0A-AF38-47407C36D4A3}
1757155.2977,5920831.1818,109150,Hobson Street Substation,Vector,Vector,"21 Hobson St,Auckland,1010",True,2,False,120,False,-36.84537,174.762623,DC,2016/02/06 00:00:00+00,2,"{DC, 50 kW, Type 2 CCS, Status: Operative, Count:1},{DC, 50 kW, CHAdeMO, Status: Operative, Count:1}",False,{F1BE3EFC-C678-4AFB-B025-1321AEED60A2}
1758202.8285,5918162.0447,109151,Newmarket Substation,Vector,Vector,"Cnr Seccombes & Gillies Ave,Newmarket,Auckland,1023",True,3,False,120,False,-36.869245,174.774923,Mixed,,8,"{DC, 50 kW, Type 2 CCS, Status: Operative, Count:2},{DC, 50 kW, CHAdeMO, Status: Operative, Count:2},{AC, 7 kW, Type 1 Tethered, Status: Operative, Count:1},{DC, 3 kW, Type 1 Tethered, Status: Unknown, Count:1},{DC, 3 kW, Type 2 Tethered, Status: Unknown, Count:1},{AC, 7 kW, Type 2 Tethered, Status: Operative, Count:1}",False,{9A3FA266-842D-433F-84FF-E77F5A423AFE}
1768947.6781,5914287.0833,109152,BP Connect Pakuranga,Vector,Vector,"322 Pakuranga Rd,Pakuranga Heights,Auckland,2010",True,2,False,120,False,-36.902296,174.896278,DC,2016/02/06 00:00:00+00,4,"{DC, 50 kW, Type 2 CCS, Status: Operative, Count:2},{DC, 50 kW, CHAdeMO, Status: Operative, Count:2}",False,{5AF08D88-0D1D-425A-AC7C-E54281281488}
1754160.5671,5443093.7291,109153,Moore Wilson's - Porirua,Thundergrid Ltd,Thundergrid Ltd,"65 Kenepuru Drive, Porirua 5022",True,1,True,None,False,-41.14883782,174.8371254,DC,2021/01/17 00:00:00+00,2,"{DC, 25 kW, CHAdeMO, Status: Operative, Count:1},{DC, 25 kW, Type 2 CCS, Status: Operative, Count:1}",True,{CF34ED16-1F71-47D8-9C28-DA4DBD8A6CCB}
1823651.676,5463054.7309,109154,Moore Wilson's - Masterton,Thundergrid Ltd,Thundergrid Ltd,"120 Dixon Street, Masterton 5810",True,2,False,None,False,-40.95304511,175.6572847,DC,2023/02/21 00:00:00+00,2,"{DC, 68 kW, CHAdeMO, Status: Operative, Count:1},{DC, 68 kW, Type 2 CCS, Status: Operative, Count:1}",True,{C91DD4D5-4482-4512-BF40-3F8F51649435}
1749166.8683,5427044.1511,109155,Sustainability Trust - Wellington,Thundergrid Ltd,Thundergrid Ltd,"2 Forresters Lane, Te Aro, Wellington 6011",True,1,True,None,False,-41.29427436,174.7815621,AC,2022/08/16 00:00:00+00,1,"{AC, 22 kW, Type 2 Socketed, Status: Operative, Count:1}",True,{B51C8B10-2F3A-47B0-9B5A-E4EFC2358B18}
1829527.6138,5626687.8258,109156,Z Waiouru,Z Energy,Z Energy,"9 State Highway 1, Waiouru 4825, New Zealand",True,2,False,Unlimited,False,-39.478806,175.66858,DC,,4,"{DC, 200 kW, Type 2 CCS, Status: Inoperative, Count:4}",True,{AF10D17D-2399-49B2-92EE-8B02FC489460}
1570148.5238,5173542.4743,109157,CHRISTCHURCH ADVENTURE PARK,MERIDIAN ENERGY LIMITED,MERIDIAN ENERGY LIMITED,"250 Dyers Pass Road, 8022 Cashmere",False,1,False,Unlimited,False,-43.59049,172.630201,AC,2019/08/15 00:00:00+00,4,"{AC, 44 kW, Type 2 Socketed, Status: Operative, Count:4}",False,{8A4F3299-0799-4FE3-9FC8-25EC42CCCEA8}
1822951.1079,5488851.1135,109158,PUKAHA NATIONAL WILDLIFE CENTRE,MERIDIAN ENERGY LIMITED,MERIDIAN ENERGY LIMITED,"85379 State Highway 2, 5881 Manawatu-Wanganui",True,1,False,Unlimited,False,-40.7210980172847,175.639738426057,AC,2020/05/29 00:00:00+00,2,"{AC, 7 kW, Type 2 Socketed, Status: Operative, Count:2}",False,{2394E91C-C446-4CE5-88AB-D994833B87E5}
1458426.7115,5092867.9041,109159,TIMARU AIRPORT,MERIDIAN ENERGY LIMITED,MERIDIAN ENERGY LIMITED,"186 Falvey Road, 7975 Levels",True,1,False,Unlimited,False,-44.303657,171.225107,AC,2020/10/07 00:00:00+00,4,"{AC, 44 kW, Type 2 Socketed, Status: Operative, Count:4}",False,{0EF57DFA-0C70-4C93-9194-F0647135ECA0}
1574161.4056,5177263.1348,109160,THE TANNERY,MERIDIAN ENERGY LIMITED,MERIDIAN ENERGY LIMITED,"3 Garlands Road, 8023 Woolston",True,1,False,240,False,-43.557139,172.680089,AC,2020/10/09 00:00:00+00,4,"{AC, 44 kW, Type 2 Socketed, Status: Operative, Count:4}",False,{8E7EF443-604C-422A-999B-82B36369B471}
1568058.0099,5179103.6026,109161,TOWER JUNCTION SHOPPING MALL - ALE HOUSE,MERIDIAN ENERGY LIMITED,MERIDIAN ENERGY LIMITED,"0 Whiteleigh Avenue, 8011 Canterbury",True,1,False,180,False,-43.540331,172.604632,AC,2020/08/26 00:00:00+00,2,"{AC, 44 kW, Type 2 Socketed, Status: Operative, Count:2}",False,{7A6D974C-29F5-4464-9DDE-C6B0294AA352}
1568288.0198,5179235.2453,109162,TOWER JUNCTION SHOPPING MALL - EZIBUY ,MERIDIAN ENERGY LIMITED,MERIDIAN ENERGY LIMITED,"66H Clarence Street, 8011 Addington",True,1,False,180,False,-43.5391554941684,172.607486613368,AC,2020/08/26 00:00:00+00,2,"{AC, 44 kW, Type 2 Socketed, Status: Operative, Count:2}",False,{9E0FEA8B-C392-4A4E-8B34-BE06B65D5D46}
1567017.7495,5205250.0814,109163,VICTORIA PARK & RANGIORA LIBRARY,MERIDIAN ENERGY LIMITED,MERIDIAN ENERGY LIMITED,"131 Percival Street, 7400 Rangiora",True,1,False,120,False,-43.30485776,172.5933352,AC,2020/12/22 00:00:00+00,4,"{AC, 44 kW, Type 2 Socketed, Status: Operative, Count:4}",False,{230A8EFF-D3D6-467C-AA2B-1032F644156E}
1754245.5213,5445576.5109,109164,"WHITIREIA COMMUNITY POLYTECHNIC, PORIRUA CAMPUS",MERIDIAN ENERGY LIMITED,MERIDIAN ENERGY LIMITED,"3 Wi Neera Drive, 5022 Wellington",False,1,False,120,False,-41.1264682454839,174.837513148195,AC,2021/05/14 00:00:00+00,2,"{AC, 44 kW, Type 2 Socketed, Status: Operative, Count:2}",False,{C9BADD8A-C445-4B24-A41C-C7D2CE21E189}
1758845.116,5427252.1165,109165,OROUA STREET EASTBOURNE,MERIDIAN ENERGY LIMITED,MERIDIAN ENERGY LIMITED,"11 Oroua Street, Eastbourne 5013",True,1,False,120,False,-41.2905555168132,174.89704031156,AC,2021/05/13 00:00:00+00,2,"{AC, 44 kW, Type 2 Socketed, Status: Operative, Count:2}",False,{08EA8076-3C92-4F08-8A92-F296E3F06B3F}
1759729.4482,5428332.5212,109166,WILLIAMS PARK EASTBOURNE,MERIDIAN ENERGY LIMITED,MERIDIAN ENERGY LIMITED,"611 Marine Drive, Wellington 5013",True,1,False,120,False,-41.2806543677567,174.907312676844,AC,2021/05/13 00:00:00+00,1,"{AC, 22 kW, Type 2 Socketed, Status: Operative, Count:1}",True,{47F564D1-4159-4EAE-A446-8398CA76A741}
1585903.587,5292215.2605,109167,HANMER SPRINGS THERMAL POOLS AND SPA - CAR PARK,MERIDIAN ENERGY LIMITED,MERIDIAN ENERGY LIMITED,"1 Jack Pass Road, 7334 Hanmer Springs",True,1,False,240,False,-42.52231104,172.8283791,AC,2020/09/07 00:00:00+00,4,"{AC, 44 kW, Type 2 Socketed, Status: Operative, Count:4}",False,{424E430F-9E28-4C1D-8590-3C56AB6D8B1F}
1756747.6382,5920460.8048,109168,WELLESLEY STREET CARPARK,MERIDIAN ENERGY LIMITED,MERIDIAN ENERGY LIMITED,"125 Wellesley Street West, 1010 Auckland",False,1,False,Unlimited,False,-36.8487749421273,174.758129160788,AC,2021/07/20 00:00:00+00,4,"{AC, 14 kW, Type 2 Socketed, Status: Operative, Count:4}",False,{C169161A-3107-426A-ADE8-54B9A930173E}
1747481.0768,5910722.151,109169,THE RISE,MERIDIAN ENERGY LIMITED,MERIDIAN ENERGY LIMITED,"490 Titirangi Road, 0604 Auckland",True,1,False,90,False,-36.93801979,174.6561285,AC,2021/07/29 00:00:00+00,2,"{AC, 22 kW, Type 2 Socketed, Status: Operative, Count:2}",False,{B0BD12AF-E344-4131-A1C5-686E649E1154}
1564159.4004,5177665.4861,109170,SILKY OTTER - WIGRAM SKIES,MERIDIAN ENERGY LIMITED,MERIDIAN ENERGY LIMITED,"82 The Runway, 8042 Wigram",True,1,False,180,False,-43.55310269,172.5562826,AC,2021/07/21 00:00:00+00,4,"{AC, 44 kW, Type 2 Socketed, Status: Operative, Count:4}",False,{D5056123-0A5D-4C6D-9CFE-0B848CA5CEC9}
1572267.7954,5196525.3555,109171,KAIAPOI LIBRARY AND SERVICE CENTRE,MERIDIAN ENERGY LIMITED,MERIDIAN ENERGY LIMITED,"127 Raven Quay, 7630 Kaiapoi",True,1,False,120,False,-43.38363038,172.6576248,AC,2021/09/07 00:00:00+00,4,"{AC, 44 kW, Type 2 Socketed, Status: Operative, Count:4}",False,{CB3477DD-0DC7-4938-A3FC-4E6343E61CB6}
1571057.6295,5179930.8821,109172,LES MILLS - CHRISTCHURCH,MERIDIAN ENERGY LIMITED,MERIDIAN ENERGY LIMITED,"1 Madras Street, 8011 Christchurch Central City",False,1,False,120,False,-43.53300448,172.6418037,AC,2021/09/17 00:00:00+00,2,"{AC, 44 kW, Type 2 Socketed, Status: Operative, Count:2}",False,{5B7A6E36-B269-4270-BE60-0326CF6EAA52}
1490917.2931,5169049.7623,109173,OPUKE THERMAL POOLS & SPA,MERIDIAN ENERGY LIMITED,MERIDIAN ENERGY LIMITED,"47 Mount Hutt Station Road, 7782 Methven",True,1,False,Unlimited,False,-43.623545,171.647953,AC,2021/11/30 00:00:00+00,4,"{AC, 44 kW, Type 2 Socketed, Status: Operative, Count:4}",False,{08EC2DBF-4E67-4D7B-9AE5-7E0B3B5E546E}
1759464.1014,5431991.6697,109174,SEAVIEW MARINA,MERIDIAN ENERGY LIMITED,HUTT CITY COUNCIL,"100 Port Road, 5010 Seaview",True,1,False,Unlimited,False,-41.2477640712882,174.903188805181,Mixed,2021/12/20 00:00:00+00,12,"{AC, 14 kW, Type 2 Socketed, Status: Operative, Count:8},{DC, 25 kW, Type 2 CCS, Status: Operative, Count:2},{DC, 25 kW, CHAdeMO, Status: Operative, Count:2}",False,{FCA9E31F-A051-44DE-B1BF-91B0BDD63BDE}
1617928.8982,5425369.5239,109175,PIC'S PEANUT BUTTER FACTORY,MERIDIAN ENERGY LIMITED,MERIDIAN ENERGY LIMITED,"49 Saxton Road, 7011 Nelso",True,1,False,Unlimited,False,-41.32294784,173.2142306,Mixed,2021/12/23 00:00:00+00,4,"{AC, 44 kW, Type 2 Socketed, Status: Operative, Count:2},{DC, 25 kW, CHAdeMO, Status: Operative, Count:1},{DC, 25 kW, Type 2 CCS, Status: Operative, Count:1}",False,{D45A0AE3-4CEC-4727-831C-751627209458}
1573172.5383,5180873.0871,109176,CANTERBURY TENNIS,MERIDIAN ENERGY LIMITED,MERIDIAN ENERGY LIMITED,"110 Woodham Road, 8062 Christchurch",True,1,False,Unlimited,False,-43.5245997723138,172.668024298479,AC,2022/05/26 00:00:00+00,6,"{AC, 44 kW, Type 2 Socketed, Status: Operative, Count:6}",False,{22029867-F4CA-47CA-9428-E8B638A37A73}
1801120.2243,5815357.5944,109177,SKYCITY HAMILTON,MERIDIAN ENERGY LIMITED,MERIDIAN ENERGY LIMITED,"346 Victoria Street, 3204 Hamilton",True,1,False,Unlimited,False,-37.7870252650637,175.283990731096,AC,2022/07/08 00:00:00+00,4,"{AC, 44 kW, Type 2 Socketed, Status: Operative, Count:4}",False,{A64C6A13-48DA-470C-B504-D92C2597EF52}
1756747.6417,5920460.805,109178,STADIUM SOUTHLAND,MERIDIAN ENERGY LIMITED,MERIDIAN ENERGY LIMITED,"36 Surrey Park Road, 9810 Invercargill",True,1,False,120,False,-36.84877494,174.7581292,AC,2022/04/05 00:00:00+00,8,"{AC, 44 kW, Type 2 Socketed, Status: Operative, Count:8}",False,{3615A65B-797F-44D6-9F31-C5D60CFE55A2}
1763468.2497,5438907.7329,109179,RICOH SPORTS CENTRE,MERIDIAN ENERGY LIMITED,MERIDIAN ENERGY LIMITED,"237 Taita Drive, 5011 Lower Hutt",True,1,False,180,False,-41.18470134,174.9491019,AC,2022/04/29 00:00:00+00,4,"{AC, 44 kW, Type 2 Socketed, Status: Operative, Count:4}",False,{0F4F5E74-4C92-4540-93E3-5713A7C0AA3F}
1499322.6123,5138116.5366,109180,"RURALCO, ASHBURTON",MERIDIAN ENERGY LIMITED,MERIDIAN ENERGY LIMITED,"97 Burnett Street, 7700 Ashburton",True,1,False,Unlimited,False,-43.90318226,171.7463065,AC,2022/06/21 00:00:00+00,4,"{AC, 44 kW, Type 2 Socketed, Status: Operative, Count:4}",False,{0A955395-0966-49B4-8A5B-F0D072ED6A48}
1563412.5921,5182792.0426,109181,"SUMMERSET RETIREMENT VILLAGE, AVONHEAD",MERIDIAN ENERGY LIMITED,MERIDIAN ENERGY LIMITED,"120 Hawthornden Road, 8042 Christchurch",True,1,False,Unlimited,False,-43.5069070666823,172.547382482468,AC,2022/04/13 00:00:00+00,4,"{AC, 44 kW, Type 2 Socketed, Status: Operative, Count:4}",False,{B2AD4EF9-1945-433A-966C-D2E85201ECEA}
1822989.2129,5462586.4038,109182,POWERSHOP MASTERTON,MERIDIAN ENERGY LIMITED,MERIDIAN ENERGY LIMITED,"427 Queen Street, 5801 Masterton",True,1,False,Unlimited,False,-40.9574405,175.6495904,AC,2022/08/08 00:00:00+00,2,"{AC, 44 kW, Type 2 Socketed, Status: Operative, Count:2}",False,{DB40AFE0-B2C9-496E-ADC7-89EDB3F58749}
1833727.8982,5535548.7799,109183,ASHHURST ENGINEERING & CONSTRUCTION CO,MERIDIAN ENERGY LIMITED,MERIDIAN ENERGY LIMITED,"85 York Street, 4810 Ashhurst",True,1,False,Unlimited,False,-40.2978996219883,175.749966372635,AC,2022/04/01 00:00:00+00,4,"{AC, 44 kW, Type 2 Socketed, Status: Operative, Count:4}",False,{0A4585F3-9A71-475D-9494-D8CF6735E947}
1766215.2229,5440099.5407,109184,STOKES VALLEY COMMUNITY HUB,MERIDIAN ENERGY LIMITED,HUTT CITY COUNCIL,"186 Stokes Valley Road, 5019 Lower Hutt",True,1,False,120,False,-41.1734131817617,174.981513117625,Mixed,2022/06/10 00:00:00+00,6,"{AC, 44 kW, Type 2 Socketed, Status: Operative, Count:2},{DC, 25 kW, CHAdeMO, Status: Operative, Count:2},{DC, 25 kW, Type 2 CCS, Status: Operative, Count:2}",False,{5B6E2FA1-1482-42C3-9563-34FD898D9B30}
1461304.1729,5080203.8731,109185,REDRUTH ECOCENTRE,MERIDIAN ENERGY LIMITED,MERIDIAN ENERGY LIMITED,"57 Redruth Street, 7910 Timaru",False,1,False,Unlimited,False,-44.4181725358125,171.257789876751,AC,2022/10/31 00:00:00+00,4,"{AC, 22 kW, Type 2 Socketed, Status: Operative, Count:4}",False,{7FFF63C1-CDCE-43D7-B2C7-EA3F0E6703A9}
1550413.2682,5171576.491,109186,FOSTER PARK,MERIDIAN ENERGY LIMITED,MERIDIAN ENERGY LIMITED,"70 Broadlands Drive, 7675 Rolleston",True,1,False,Unlimited,False,-43.6071388166925,172.38555235265,AC,2022/12/22 00:00:00+00,8,"{AC, 22 kW, Type 2 Socketed, Status: Operative, Count:8}",False,{2ADAE47E-950A-4134-95F0-B1F2A2FF1944}
1500274.8251,5138886.3364,109187,"ROBERT HARRIS, WEST STREET",MERIDIAN ENERGY LIMITED,MERIDIAN ENERGY LIMITED,"360 West Street, 7700 Ashburton",True,1,False,Unlimited,False,-43.8963823296881,171.758305282043,AC,2022/09/29 00:00:00+00,4,"{AC, 22 kW, Type 2 Socketed, Status: Operative, Count:4}",False,{A12BCB70-57B3-44A3-B5BE-FAF92F164D1A}
1799749.9336,5822989.9478,109188,"SUMMERSET RETIREMENT VILLAGE, ROTOTUNA",MERIDIAN ENERGY LIMITED,MERIDIAN ENERGY LIMITED,"39 Kimbrae Drive, 3210 Hamilton",True,1,False,Unlimited,False,-37.7185872997106,175.266341769599,AC,2023/01/11 00:00:00+00,4,"{AC, 22 kW, Type 2 Socketed, Status: Operative, Count:4}",False,{425B9E17-B044-40FD-BEC5-7782CBA4A8D9}
1823937.5399,5526009.6757,109189,"SUMMERSET RETIREMENT VILLAGE, PALMERSTON NORTH",MERIDIAN ENERGY LIMITED,MERIDIAN ENERGY LIMITED,"182 Ruapehu Drive, 4410 Fitzherbert",True,1,False,Unlimited,False,-40.3864286273598,175.638238798445,AC,2022/11/14 00:00:00+00,4,"{AC, 22 kW, Type 2 Socketed, Status: Operative, Count:4}",False,{77A6B138-5BC8-4AEB-9A6F-C3224B77418A}
1745490.651,5428119.1694,109190,KARORI RECREATION CENTRE,MERIDIAN ENERGY LIMITED,WELLINGTON CITY COUNCIL,"251 Karori Road, Wellington 6012",True,1,False,120,False,-41.2852663252922,174.737418219521,DC,2022/12/23 00:00:00+00,4,"{DC, 24 kW, Type 1 CCS, Status: Operative, Count:2},{DC, 24 kW, CHAdeMO, Status: Operative, Count:2}",True,{F9249017-BDF3-4488-B43A-630739BE76BD}
1618449.3051,5425858.9092,109191,"SUMMERSET RETIREMENT VILLAGE, STOKE",MERIDIAN ENERGY LIMITED,MERIDIAN ENERGY LIMITED,"16 Sargeson Street, 7011 Stoke",False,1,False,Unlimited,False,-41.3185278786945,173.220433992004,AC,2022/09/30 00:00:00+00,4,"{AC, 22 kW, Type 2 Socketed, Status: Operative, Count:4}",False,{E35F6295-9E33-4D36-9FF7-686C7B35B580}
1499042.0705,5137475.1292,109192,"KMART, RIVER CROSSING",MERIDIAN ENERGY LIMITED,MERIDIAN ENERGY LIMITED,"50 South Street, 7700 Ashburton",True,1,False,Unlimited,False,-43.9089175036849,171.742692322788,AC,2022/10/19 00:00:00+00,6,"{AC, 22 kW, Type 2 Socketed, Status: Operative, Count:6}",False,{7776F0F5-61FA-4628-BBDB-803A709F170D}
1759465.1135,5431987.7623,109193,SEAVIEW MARINA CAR PARK,MERIDIAN ENERGY LIMITED,MERIDIAN ENERGY LIMITED,"100 Port Road, 5010 Seaview",True,1,False,Unlimited,False,-41.24779905,174.9032019,AC,2021/12/20 00:00:00+00,8,"{AC, 7 kW, Type 2 Socketed, Status: Operative, Count:8}",False,{6C520D77-FAC0-4A55-9208-07139700EBFD}
1859217.2937,5841270.8068,109194,"SUMMERSET RETIREMENT VILLAGE, KATIKATI",MERIDIAN ENERGY LIMITED,MERIDIAN ENERGY LIMITED,"181 Park Road, 3129 Katikati",True,1,False,Unlimited,False,-37.5391381405012,175.933850576545,AC,2022/10/31 00:00:00+00,4,"{AC, 22 kW, Type 2 Socketed, Status: Operative, Count:4}",False,{32DBDFDA-971F-442C-BDC4-AF3582CC25A7}
1242051.5879,4850350.6506,109195,FARMLANDS INVERCARGILL,MERIDIAN ENERGY LIMITED,MERIDIAN ENERGY LIMITED,"16 Victoria Avenue, 9810 Invercargill",True,1,False,Unlimited,False,-46.4054934831679,168.342889430905,AC,2023/03/28 00:00:00+00,4,"{AC, 22 kW, Type 2 Socketed, Status: Operative, Count:4}",False,{BE247218-1EE2-46B6-BECC-8319506E6560}
1759762.1592,5434548.9996,109196,MOERA LIBRARY & TOWN HALL,MERIDIAN ENERGY LIMITED,HUTT CITY COUNCIL,"107 Randwick Crescent, Moera 5010",True,1,False,120,False,-41.2246819139027,174.906075024159,DC,2022/12/14 00:00:00+00,4,"{DC, 24 kW, Type 1 CCS, Status: Operative, Count:2},{DC, 24 kW, CHAdeMO, Status: Operative, Count:2}",True,{4016E168-3F00-4CB6-B29F-5C5A39881258}
1802732.0336,5811731.6607,109197,"SUMMERSET RETIREMENT VILLAGE, FITZROY",MERIDIAN ENERGY LIMITED,MERIDIAN ENERGY LIMITED,"206 Dixon Road, 3206 Fitzroy",True,1,False,Unlimited,False,-37.8193239135234,175.30329589785,AC,2023/01/27 00:00:00+00,4,"{AC, 22 kW, Type 2 Socketed, Status: Operative, Count:4}",False,{6B8ECE59-4D03-4E89-ABEA-BB77B8DFDB82}
1754394.8132,5443441.2185,109198,"SUMMERSET RETIREMENT VILLAGE, KENEPURU",MERIDIAN ENERGY LIMITED,MERIDIAN ENERGY LIMITED,"4 Chapel Drive, 5022 Kenepuru",True,1,False,Unlimited,False,-41.1456647036878,174.839828042992,AC,2022/12/20 00:00:00+00,4,"{AC, 22 kW, Type 2 Socketed, Status: Operative, Count:4}",False,{C902117E-ED8C-4F93-A942-A03912A53C32}
1764372.1303,5439519.0212,109199,WALTER NASH STADIUM,MERIDIAN ENERGY LIMITED,HUTT CITY COUNCIL,"14 Tocker Street, Taitā 5011",True,1,False,120,False,-41.1790152542272,174.959709115081,Mixed,2022/12/22 00:00:00+00,8,"{DC, 24 kW, Type 1 CCS, Status: Operative, Count:3},{DC, 24 kW, CHAdeMO, Status: Operative, Count:3},{AC, 22 kW, Type 2 Socketed, Status: Operative, Count:2}",True,{451F883E-6719-40E8-9D4D-B1901F2B62F9}
1750172.0085,5424597.0692,109200,KILBIRNIE RECREATION CENTRE,MERIDIAN ENERGY LIMITED,WELLINGTON CITY COUNCIL,"101 Kilbirnie Crescent, Wellington 6022",True,1,False,120,False,-41.3161198784316,174.794165299353,DC,2023/02/13 00:00:00+00,4,"{DC, 24 kW, Type 1 CCS, Status: Operative, Count:2},{DC, 24 kW, CHAdeMO, Status: Operative, Count:2}",True,{72DD58F5-B8B9-4BCD-93DA-69AB0B34ABC7}
1762747.5097,5914612.3859,109201,"SUMMERSET RETIREMENT VILLAGE, ELLERSLIE",MERIDIAN ENERGY LIMITED,MERIDIAN ENERGY LIMITED,"8 Harrison Road, 1060 Auckland",True,1,False,Unlimited,False,-36.9004552062928,174.826649839262,AC,2022/12/20 00:00:00+00,4,"{AC, 22 kW, Type 2 Socketed, Status: Operative, Count:4}",False,{BEF41BEC-7898-42B1-9A05-A19450AE356E}
1514307.825,5185179.7504,109202,HORORATA GOLF CLUB,MERIDIAN ENERGY LIMITED,MERIDIAN ENERGY LIMITED,"2597 Homebush Road, 7673 Glentunnel",True,1,False,Unlimited,False,-43.4813932101758,171.940363443353,AC,2022/07/26 00:00:00+00,4,"{AC, 22 kW, Type 2 Socketed, Status: Operative, Count:4}",False,{1A64E7E6-3FD9-46B9-916C-177A40F7DB38}
1242471.6096,4849562.3964,109203,INVERCARGILL CENTRAL,MERIDIAN ENERGY LIMITED,MERIDIAN ENERGY LIMITED,"1 Dee Street, 9810 Invercargill",False,1,False,Unlimited,False,-46.4127862776574,168.347733378184,AC,2022/08/08 00:00:00+00,6,"{AC, 22 kW, Type 2 Socketed, Status: Operative, Count:6}",False,{5506F86A-9D04-4A69-B774-6B3E2D79227A}
1749693.8539,5431999.079,109204,NAIRNVILLE RECREATION CENTRE,MERIDIAN ENERGY LIMITED,WELLINGTON CITY COUNCIL,"0 Corner of Cockayne and Lucknow Terrace, Khandallah 6035",True,1,False,120,False,-41.2495654941976,174.786636094162,DC,2022/09/12 00:00:00+00,4,"{DC, 24 kW, Type 1 CCS, Status: Operative, Count:2},{DC, 24 kW, CHAdeMO, Status: Operative, Count:2}",True,{F78E1FFC-DF3B-4332-BACF-326CFB56A009}
1748933.5492,5428210.8266,109205,MEVO QUEENS WHARF LOBSTER LOOS,MERIDIAN ENERGY LIMITED,MEVO LIMITED,"59 Customhouse Quay, 6011 Wellington Central",True,1,False,Unlimited,False,-41.2838133569664,174.778491397101,AC,2023/04/04 00:00:00+00,1,"{AC, 10 kW, Type 2 Socketed, Status: Operative, Count:1}",False,{5217AE24-6654-4987-A5C7-7D24819C61F7}
1812639.7188,5455294.3498,109206,CARTERTON EVENTS CENTRE,MERIDIAN ENERGY LIMITED,MERIDIAN ENERGY LIMITED,"80 Holloway Street, 5713 Carterton",True,1,False,Unlimited,False,-41.0258248162195,175.529241507129,AC,2023/01/27 00:00:00+00,4,"{AC, 22 kW, Type 2 Socketed, Status: Operative, Count:4}",False,{A66A2CB2-5440-45A5-BB3D-779DDA3A5915}
1763032.0776,5430348.0792,109207,WAINUIOMATA HUB,MERIDIAN ENERGY LIMITED,MERIDIAN ENERGY LIMITED,"1 Queen Street, 5014 Wainuiomata",True,1,False,Unlimited,False,-41.2618491061729,174.946188284966,AC,2022/08/18 00:00:00+00,4,"{AC, 22 kW, Type 2 Socketed, Status: Operative, Count:4}",False,{584B3C49-1486-40EE-99D0-5474B29E5C54}
1548787.1579,5180782.1247,109208,WEST MELTON COMMUNITY AND RECREATION CENTRE,MERIDIAN ENERGY LIMITED,MERIDIAN ENERGY LIMITED,"1163 West Coast Road, 7671 West Melton",True,1,False,Unlimited,False,-43.5241444939057,172.366273331707,AC,2023/05/23 00:00:00+00,4,"{AC, 22 kW, Type 2 Socketed, Status: Operative, Count:4}",False,{E563DED1-33FC-45AF-81DF-9F78D5286D69}
1762013.8555,5437890.4851,109209,AVALON HUB,MERIDIAN ENERGY LIMITED,HUTT CITY COUNCIL,"2 Fairway Drive, 5011 Avalon",True,1,False,120,False,-41.1941515421584,174.932039315211,Mixed,2023/04/21 00:00:00+00,14,"{DC, 24 kW, Type 1 CCS, Status: Operative, Count:4},{AC, 22 kW, Type 2 Socketed, Status: Operative, Count:4},{DC, 24 kW, CHAdeMO, Status: Operative, Count:4},{DC, 75 kW, Type 1 CCS, Status: Operative, Count:2}",False,{DB70BA9F-4AB7-4E98-BB52-1A29CE1F6D3E}
1548787.1579,5180782.1247,109210,CRITERION LANE CARPARK,MERIDIAN ENERGY LIMITED,MERIDIAN ENERGY LIMITED,"837 Fergusson Drive, 5018 Upper Hutt Central",True,1,False,180,False,-43.5241444939057,172.366273331707,AC,2023/06/27 00:00:00+00,4,"{AC, 22 kW, Type 2 Socketed, Status: Operative, Count:4}",False,{69180D2A-7C59-4755-9DA3-CDEB332AF1F6}
1746816.3733,5926190.4957,109211,Hobsonville,ChargeNet NZ,ChargeNet NZ,"120 Hobsonville Rd, Auckland 0618, New Zealand",True,1,False,Unlimited,False,-36.79874,174.645674,DC,2020/12/12 00:00:00+00,4,"{DC, 50 kW, Type 2 CCS, Status: Operative, Count:1},{DC, 25 kW, CHAdeMO, Status: Operative, Count:1},{DC, 25 kW, Type 2 CCS, Status: Operative, Count:1},{DC, 50 kW, CHAdeMO, Status: Inoperative, Count:1}",True,{73E73554-0524-44D0-B84B-F313C4CDF5EB}
1752766.7197,5924657.3793,109212,Birkenhead,ChargeNet NZ,ChargeNet NZ,"180 Mokoia Rd, Auckland 0626, New Zealand",True,1,False,Unlimited,False,-36.811613,174.712653,DC,2020/10/23 00:00:00+00,2,"{DC, 50 kW, Type 2 CCS, Status: Operative, Count:1},{DC, 50 kW, CHAdeMO, Status: Inoperative, Count:1}",True,{064B12C9-6DD2-4175-AAEF-A7E163C6174D}
1743448.9952,5923906.796,109213,Westgate,ChargeNet NZ,ChargeNet NZ,"Tawhia Dr, Auckland 0814, New Zealand",True,1,False,Unlimited,False,-36.819835,174.608373,DC,2021/05/26 00:00:00+00,2,"{DC, 50 kW, CHAdeMO, Status: Operative, Count:1},{DC, 50 kW, Type 2 CCS, Status: Operative, Count:1}",True,{E9E4A343-DEBB-46DD-8E87-A0E13EAF5A30}
1760214.4484,5922475.4681,109214,Devonport,ChargeNet NZ,ChargeNet NZ,"Clarence St, Auckland 0624, New Zealand",True,1,False,Unlimited,False,-36.830041,174.796572,DC,2021/04/07 00:00:00+00,2,"{DC, 50 kW, CHAdeMO, Status: Operative, Count:1},{DC, 50 kW, Type 2 CCS, Status: Operative, Count:1}",True,{38AC1FFD-D165-49FD-963B-2BC79DDD1FCD}
1841116.7641,5920071.0474,109215,Whitianga,ChargeNet NZ,ChargeNet NZ,"4 Lee St, Whitianga 3510, New Zealand",True,1,False,Unlimited,False,-36.834533,175.703773,DC,2017/11/02 00:00:00+00,2,"{DC, 50 kW, Type 2 CCS, Status: Operative, Count:1},{DC, 50 kW, CHAdeMO, Status: Inoperative, Count:1}",True,{7C7A6F0B-CB0A-4AAB-80DE-838BE53F7A72}
1757291.3687,5920992.9247,109216,Downtown Carpark,ChargeNet NZ,ChargeNet NZ,"31 Customs Street West, Auckland 1010, NZ",False,1,True,Unlimited,False,-36.84389,174.764115,AC,2018/04/28 00:00:00+00,6,"{AC, 7 kW, Type 2 Socketed, Status: Operative, Count:6}",False,{188F6C3E-5BFB-4761-8925-93592DE62B4B}
1756887.0471,5920776.197,109217,Fanshawe St Carpark,ChargeNet NZ,ChargeNet NZ,"72-100 Fanshawe St, Auckland 1010, NZ",False,1,True,Unlimited,False,-36.84591,174.759627,AC,2019/02/25 00:00:00+00,6,"{AC, 7 kW, Type 2 Socketed, Status: Operative, Count:6}",False,{67C5F292-D3C6-452E-B29A-C137AF022F5A}
1755417.7704,5920506.0391,109218,Pompallier Tce,ChargeNet NZ,ChargeNet NZ,"2 Pompallier Terrace, Auckland 1011, NZ",True,1,True,Unlimited,False,-36.848587,174.74321,AC,2018/12/16 00:00:00+00,3,"{AC, 7 kW, Type 2 Socketed, Status: Operative, Count:3}",False,{D83A7D51-F32E-42E0-8F12-B05B1BFDF31E}
1757530.5631,5920416.9398,109219,Victoria St Car Park,ChargeNet NZ,ChargeNet NZ,"30 Kitchener Street, Auckland 1010, NZ",False,1,True,Unlimited,False,-36.84904,174.766916,AC,2018/04/28 00:00:00+00,3,"{AC, 7 kW, Type 2 Socketed, Status: Operative, Count:3}",False,{1C69F7ED-F361-4716-9187-BB03A3BAAA49}
1757120.4996,5919994.3456,109220,Civic Car Park,ChargeNet NZ,ChargeNet NZ,"Greys Ave & Mayoral Drive, Auckland 1010, NZ",False,1,True,Unlimited,False,-36.852916,174.762406,AC,2018/04/28 00:00:00+00,6,"{AC, 7 kW, Type 2 Socketed, Status: Operative, Count:5},{AC, 7 kW, Type 2 Socketed, Status: Inoperative, Count:1}",False,{5D64C849-91DC-4041-8C77-2302111FD4F0}
1745282.4012,5919685.6553,109221,Lincoln Road,ChargeNet NZ,ChargeNet NZ,"202-224 Lincoln Rd, Auckland 0610, New Zealand",True,1,False,Unlimited,False,-36.857592,174.629729,DC,2017/12/13 00:00:00+00,2,"{DC, 50 kW, CHAdeMO, Status: Operative, Count:1},{DC, 50 kW, Type 2 CCS, Status: Operative, Count:1}",True,{00224DF4-6E33-4363-BD33-7963FF977CA3}
1762983.5055,5919011.1017,109222,Eastridge,ChargeNet NZ,ChargeNet NZ,"209 Kepa Rd, Mission Bay 1070, New Zealand",True,1,False,Unlimited,False,-36.860782,174.828352,DC,2020/03/26 00:00:00+00,2,"{DC, 50 kW, Type 2 CCS, Status: Operative, Count:1},{DC, 50 kW, CHAdeMO, Status: Inoperative, Count:1}",True,{8FBBD278-2FAA-4EA9-A26D-2C954805BDD7}
1755936.8253,5918930.477,109223,Grey Lynn,ChargeNet NZ,Quattro Motors Ltd,"150 Great North Rd, Auckland 1245, NZ",True,1,True,Unlimited,False,-36.862698,174.749353,Mixed,2020/10/12 00:00:00+00,5,"{DC, 180 kW, Type 2 CCS, Status: Operative, Count:2},{DC, 50 kW, Type 2 CCS, Status: Unknown, Count:1},{DC, 50 kW, CHAdeMO, Status: Unknown, Count:1},{AC, 22 kW, Type 2 Socketed, Status: Unknown, Count:1}",True,{9A2C5C2F-EE10-4A6D-A463-4AA87B2E35A9}
1756965.652,5918668.4005,109224,Symonds St,ChargeNet NZ,ChargeNet NZ,"226-228 Symonds St, Auckland 1010, NZ",True,1,True,Unlimited,False,-36.864889,174.760944,AC,2019/06/14 00:00:00+00,6,"{AC, 7 kW, Type 2 Socketed, Status: Operative, Count:4},{AC, 7 kW, Type 2 Socketed, Status: Inoperative, Count:2}",False,{9266D742-A356-4D30-8BFA-9911338C83E1}
1765139.4398,5914840.7467,109225,Pilkington Rd,ChargeNet NZ,ChargeNet NZ,"28-30 Pilkington Rd, Auckland 1072, NZ",True,1,True,Unlimited,False,-36.897982,174.853434,AC,2019/01/14 00:00:00+00,6,"{AC, 7 kW, Type 2 Socketed, Status: Operative, Count:4},{AC, 7 kW, Type 2 Socketed, Status: Inoperative, Count:2}",False,{81E8EE2A-A786-4EAE-A607-6CC0723E96B7}
1754601.3241,5913895.0552,109226,Mt Roskill,ChargeNet NZ,ChargeNet NZ,"53 May Rd, Auckland 1041, New Zealand",True,1,False,Unlimited,False,-36.908289,174.735404,DC,2019/11/21 00:00:00+00,2,"{DC, 50 kW, CHAdeMO, Status: Operative, Count:1},{DC, 50 kW, Type 2 CCS, Status: Operative, Count:1}",True,{FF4384E8-1084-4E37-B9CE-143A08B087CB}
1749927.9525,5913855.5028,109227,McCrae Way Carpark,ChargeNet NZ,ChargeNet NZ,"McCrae Way, Auckland 0600, NZ",False,1,True,Unlimited,False,-36.9094,174.682974,AC,2018/09/13 00:00:00+00,6,"{AC, 7 kW, Type 2 Socketed, Status: Operative, Count:5},{AC, 7 kW, Type 2 Socketed, Status: Inoperative, Count:1}",False,{AF9BFB93-F04D-4545-B14E-F968F2B58CBF}
1750178.4993,5913796.6981,109228,New Lynn,ChargeNet NZ,ChargeNet NZ,"2/6 Crown Lynn Place, Auckland 0600, New Zealand",True,1,False,Unlimited,False,-36.90989,174.685797,DC,2023/04/16 00:00:00+00,2,"{DC, 50 kW, Type 2 CCS, Status: Operative, Count:1},{DC, 50 kW, CHAdeMO, Status: Operative, Count:1}",True,{B83B42DD-F422-470D-A688-EE7530D01977}
1766942.9874,5910384.7333,109229,Highbrook,ChargeNet NZ,Goodman Nominee (NZ) Ltd,"Wilson Carpark - 60 Highbrook drive, Auckland 2013, New Zealand",True,1,True,Unlimited,False,-36.937812,174.874649,DC,2022/05/18 00:00:00+00,2,"{DC, 150 kW, Type 2 CCS, Status: Operative, Count:2}",True,{37EA5A1A-B7B7-4B19-8373-D4B04ABF61ED}
1769230.7606,5909711.3143,109230,Hello Stranger Cafe,ChargeNet NZ,Howick Village Cafe,"27a Smales Road, Auckland 2013, New Zealand",True,1,True,Unlimited,False,-36.943471,174.900477,Mixed,,3,"{DC, 50 kW, CHAdeMO, Status: Operative, Count:1},{DC, 50 kW, Type 2 CCS, Status: Operative, Count:1},{AC, 43 kW, Type 2 Tethered, Status: Operative, Count:1}",True,{0166B2BB-8C33-4F41-8CD8-7DA7092A0C4C}
1767239.4884,5904797.7555,109231,Manukau,ChargeNet NZ,ChargeNet NZ,"6 Cavendish Drive, Auckland 2104, New Zealand",True,1,False,Unlimited,False,-36.988096,174.879214,DC,2019/07/24 00:00:00+00,2,"{DC, 50 kW, CHAdeMO, Status: Operative, Count:1},{DC, 50 kW, Type 2 CCS, Status: Operative, Count:1}",True,{290797B1-C46A-46F6-ADFE-D491035F4FF9}
1767128.7517,5904523.7906,109232,Ronwood Ave Carpark,ChargeNet NZ,ChargeNet NZ,"Cnr Ronwood and Davies Ave, Auckland 2104, NZ",False,1,True,Unlimited,False,-36.990584,174.878031,AC,2018/06/17 00:00:00+00,6,"{AC, 7 kW, Type 2 Socketed, Status: Operative, Count:6}",False,{B577D606-B84D-443F-B355-10FFA350D9FC}
1766086.3462,5904047.6021,109233,Amble + Birch Café,ChargeNet NZ,Goodman Nominee (NZ) Ltd,"Amble & Birch - 88 Plunket Avenue, Auckland 2104, New Zealand",True,1,True,Unlimited,False,-36.995059,174.866428,DC,2022/03/02 00:00:00+00,2,"{DC, 150 kW, Type 2 CCS, Status: Operative, Count:2}",True,{89616A14-9F3C-4FB6-9481-E6266D01A8E8}
1853626.6596,5901241.1961,109234,Tairua,ChargeNet NZ,ChargeNet NZ,"6 Tokoroa Rd, Tairua 3508, New Zealand",True,1,False,Unlimited,False,-37.000794,175.850207,DC,2017/05/04 00:00:00+00,2,"{DC, 50 kW, Type 2 CCS, Status: Operative, Count:1},{DC, 50 kW, CHAdeMO, Status: Inoperative, Count:1}",True,{854D8425-3901-48EC-8047-9D74DD1B30BC}
1771773.0754,5897460.0634,109235,Takanini,ChargeNet NZ,ChargeNet NZ,"345 Great South Rd, Takanini 2112, NZ",True,1,False,Unlimited,False,-37.053386,174.931804,DC,2018/06/14 00:00:00+00,2,"{DC, 25 kW, CHAdeMO, Status: Operative, Count:1},{DC, 25 kW, Type 2 CCS, Status: Operative, Count:1}",True,{3F33BF48-6EE8-4856-AF3B-9B6923642571}
1825883.7929,5886662.1064,109236,Thames,ChargeNet NZ,ChargeNet NZ,"505 Mackay Street, Thames 3500, New Zealand",True,1,False,Unlimited,False,-37.139161,175.543117,DC,2016/09/01 00:00:00+00,2,"{DC, 50 kW, Type 2 CCS, Status: Operative, Count:1},{DC, 50 kW, CHAdeMO, Status: Inoperative, Count:1}",True,{3D209E45-E055-463E-82E6-8C9118F4D0AD}
1776059.2802,5881902.9392,109237,Bombay HPC,ChargeNet NZ,ChargeNet NZ,"Mill Rd, Bombay 1010, NZ",True,1,False,Unlimited,False,-37.192743,174.983637,DC,2020/08/07 00:00:00+00,6,"{DC, 300 kW, Type 2 CCS, Status: Operative, Count:4},{DC, 50 kW, CHAdeMO, Status: Operative, Count:2}",True,{26D308AD-7804-47A7-ADC4-5039DD019B15}
1855049.7515,5878663.2333,109238,Whangamata,ChargeNet NZ,ChargeNet NZ,"100 Hetherington Rd, Whangamata 3620, New Zealand",True,1,False,Unlimited,False,-37.203677,175.873856,DC,2017/12/12 00:00:00+00,2,"{DC, 50 kW, CHAdeMO, Status: Operative, Count:1},{DC, 50 kW, Type 2 CCS, Status: Operative, Count:1}",True,{EDEF6447-8704-4F16-8022-6C44230FAA84}
1851323.8497,5857722.9739,109239,Waihi,ChargeNet NZ,ChargeNet NZ,"35 Kenny Street, Waihi 3610, NZ",True,1,False,Unlimited,False,-37.393211,175.839003,DC,2018/03/30 00:00:00+00,2,"{DC, 50 kW, CHAdeMO, Status: Operative, Count:1},{DC, 50 kW, Type 2 CCS, Status: Operative, Count:1}",True,{BBBB4634-990E-4660-9BA2-B141E8546244}
2073918.2157,5821233.7978,109240,Te Araroa,ChargeNet NZ,Firstlight Network Ltd,"20 Rata St, Te Araroa 4082, New Zealand",True,1,False,Unlimited,False,-37.63379,178.369254,DC,2018/06/06 00:00:00+00,2,"{DC, 25 kW, CHAdeMO, Status: Operative, Count:1},{DC, 25 kW, Type 2 CCS, Status: Operative, Count:1}",True,{D74FC923-535D-4E56-8642-223AC988E266}
1822460.7606,5828912.5921,109241,Morrinsville,ChargeNet NZ,ChargeNet NZ,"79/89-97 Thames St, Morrinsville 3300, NZ",True,1,False,Unlimited,False,-37.660023,175.521991,DC,2018/10/09 00:00:00+00,2,"{DC, 50 kW, CHAdeMO, Status: Operative, Count:1},{DC, 50 kW, Type 2 CCS, Status: Operative, Count:1}",True,{53FFD8F4-6B5C-4599-AE40-6EABF8D9BF08}
1882001.3663,5826526.9726,109242,Farmer Autovillage,ChargeNet NZ,Farmer Autovillage,"44 Maru Street, Mount Maunganui 3116, New Zealand",True,1,True,Unlimited,False,-37.66514,176.19705,DC,2021/11/03 00:00:00+00,2,"{DC, 175 kW, Type 2 CCS, Status: Operative, Count:1},{DC, 175 kW, CHAdeMO, Status: Operative, Count:1}",True,{604C9365-6F2A-486C-8D46-9B66FB4D77A5}
1884370.4046,5825351.6644,109243,Bayfair,ChargeNet NZ,ChargeNet NZ,"19 Girven Road, Tauranga 3116, New Zealand",True,1,False,Unlimited,False,-37.674986,176.224327,DC,2016/03/03 00:00:00+00,2,"{DC, 50 kW, Type 2 CCS, Status: Operative, Count:1},{DC, 50 kW, CHAdeMO, Status: Inoperative, Count:1}",True,{247AF80F-9490-4471-8437-326F1F1F7EA3}
1879310.0036,5824231.3974,109244,Tauranga CBD,ChargeNet NZ,GoTo Car Share,"148 Durham Street, Tauranga 3110, New Zealand",True,1,True,Unlimited,False,-37.686622,176.16746,DC,2022/06/06 00:00:00+00,2,"{DC, 30 kW, CHAdeMO, Status: Operative, Count:1},{DC, 30 kW, Type 2 CCS, Status: Operative, Count:1}",True,{A7681D71-854E-4D8A-9491-99B724DD9129}
1878747.9289,5823250.352,109245,Cameron Road,ChargeNet NZ,ChargeNet NZ,"476 Cameron Road, Tauranga 3110, New Zealand",True,1,False,Unlimited,False,-37.695622,176.16147,DC,2020/10/07 00:00:00+00,2,"{DC, 50 kW, CHAdeMO, Status: Operative, Count:1},{DC, 50 kW, Type 2 CCS, Status: Operative, Count:1}",True,{46D285CB-4410-462D-BCC1-E160D36796F4}
2012044.2957,5812701.4519,109246,Te Kaha,ChargeNet NZ,Horizon Networks,"11 Te Kaha Hotel Rd, Te Kaha 3199, NZ",True,1,False,Unlimited,False,-37.740247,177.675372,Mixed,2018/02/16 00:00:00+00,3,"{DC, 50 kW, CHAdeMO, Status: Operative, Count:1},{DC, 50 kW, Type 2 CCS, Status: Operative, Count:1},{AC, 22 kW, Type 2 Socketed, Status: Operative, Count:1}",True,{30616D59-D169-43A2-BB20-323E3FF38595}
1796026.3585,5820029.7198,109247,Te Rapa,ChargeNet NZ,Ebbett Volkswagen,"51-55 Te Kowhai East Road, Burbush 3200, New Zealand",True,1,True,Unlimited,False,-37.746053,175.224922,DC,2022/08/11 00:00:00+00,2,"{DC, 175 kW, Type 2 CCS, Status: Operative, Count:1},{DC, 175 kW, CHAdeMO, Status: Operative, Count:1}",True,{F9DAC2B7-78EC-4B81-8401-0D6A79981EE2}
1800240.2071,5816282.0247,109248,Mill St,ChargeNet NZ,ChargeNet NZ,"17 Mill Street, Hamilton 3200, New Zealand",True,1,False,Unlimited,False,-37.778893,175.273749,DC,2019/04/23 00:00:00+00,2,"{DC, 50 kW, CHAdeMO, Status: Operative, Count:1},{DC, 50 kW, Type 2 CCS, Status: Operative, Count:1}",True,{06DA8321-1DE0-4822-8D43-155B65E11C30}
1893027.1829,5812989.8503,109249,Te Puke,ChargeNet NZ,ChargeNet NZ,"12 Jocelyn St, Te Puke 3119, New Zealand",True,1,False,Unlimited,False,-37.783496,176.327311,DC,2020/11/30 00:00:00+00,2,"{DC, 50 kW, CHAdeMO, Status: Operative, Count:1},{DC, 50 kW, Type 2 CCS, Status: Operative, Count:1}",True,{D72BFC89-7205-4298-AB79-BA2BCA1C7EE6}
1843864.781,5812343.7673,109250,Matamata,ChargeNet NZ,ChargeNet NZ,"45 Waharoa Rd, Matamata 3400, NZ",True,1,False,Unlimited,False,-37.803753,175.769951,DC,2018/12/20 00:00:00+00,2,"{DC, 50 kW, Type 2 CCS, Status: Operative, Count:1},{DC, 50 kW, CHAdeMO, Status: Inoperative, Count:1}",True,{59CB7590-8E7E-477F-BEE2-ACBFF2BAC2AC}
2067718.4945,5792884.967,109251,Ruatoria,ChargeNet NZ,Firstlight Network Ltd,"146 Waiomatatini Road, Ruatoria 4032, New Zealand",True,1,False,Unlimited,False,-37.891379,178.317528,DC,2022/09/29 00:00:00+00,2,"{DC, 25 kW, CHAdeMO, Status: Inoperative, Count:1},{DC, 25 kW, Type 2 CCS, Status: Inoperative, Count:1}",True,{FED86473-155B-414A-B8A2-A61919AA362D}
1816926.742,5803322.3274,109252,Cambridge,ChargeNet NZ,ChargeNet NZ,"73 Queen St, Cambridge 3434, New Zealand",True,1,False,Unlimited,False,-37.891785,175.466957,DC,2017/05/01 00:00:00+00,2,"{DC, 50 kW, CHAdeMO, Status: Operative, Count:1},{DC, 50 kW, Type 2 CCS, Status: Inoperative, Count:1}",True,{511CA4C6-48DF-461D-A0AA-1E13FB7BF0C3}
1951409.6632,5792202.1786,109253,Whakatane,ChargeNet NZ,Horizon Networks,"31 Quay Street, Whakatane 3120, NZ",True,1,False,Unlimited,False,-37.949836,176.998989,Mixed,2018/02/15 00:00:00+00,3,"{DC, 50 kW, Type 2 CCS, Status: Operative, Count:1},{DC, 50 kW, CHAdeMO, Status: Operative, Count:1},{AC, 22 kW, Type 2 Socketed, Status: Operative, Count:1}",True,{63C5D663-5076-4EBD-8B27-C6091CF63934}
1842279.2404,5792989.8422,109254,Tirau,ChargeNet NZ,ChargeNet NZ,"3 Station St, Tirau 3410, NZ",True,1,False,Unlimited,False,-37.978411,175.758459,DC,2019/08/09 00:00:00+00,4,"{DC, 50 kW, Type 2 CCS, Status: Operative, Count:2},{DC, 50 kW, CHAdeMO, Status: Operative, Count:1},{DC, 50 kW, CHAdeMO, Status: Inoperative, Count:1}",True,{B44F57A9-FD68-4E14-8B76-EB06D10780E7}
1793214.1638,5792827.4776,109255,Pirongia,ChargeNet NZ,ChargeNet NZ,"270 Crozier St, Pirongia 3802, NZ",True,1,False,Unlimited,False,-37.991647,175.200302,DC,2018/11/01 00:00:00+00,2,"{DC, 50 kW, Type 2 CCS, Status: Operative, Count:1},{DC, 50 kW, CHAdeMO, Status: Inoperative, Count:1}",True,{D90AAB0E-A692-4BD3-AE77-560825B1C99E}
1804462.8136,5790685.2663,109256,Te Awamutu,ChargeNet NZ,ChargeNet NZ,"10 Scout Lane, Te Awamutu 3800, New Zealand",True,1,False,Unlimited,False,-38.008473,175.328916,DC,2023/05/10 00:00:00+00,2,"{DC, 50 kW, Type 2 CCS, Status: Operative, Count:1},{DC, 50 kW, CHAdeMO, Status: Operative, Count:1}",True,{CB4352C8-D4FC-464B-AA2C-609730565B61}
1976090.7283,5784129.0618,109257,Opotiki,ChargeNet NZ,Horizon Networks,"70 Bridge Street, Opotiki 3122, NZ",True,1,False,Unlimited,False,-38.012522,177.283381,Mixed,2018/02/16 00:00:00+00,3,"{DC, 50 kW, CHAdeMO, Status: Operative, Count:1},{DC, 50 kW, Type 2 CCS, Status: Operative, Count:1},{AC, 22 kW, Type 2 Socketed, Status: Operative, Count:1}",True,{AD8F0522-07EC-4CE4-8C04-A699D242F61F}
1924681.3099,5778254.5398,109258,Kawerau,ChargeNet NZ,ChargeNet NZ,"6-14 Islington Street, Kawerau 3127, New Zealand",True,1,False,Unlimited,False,-38.085223,176.701745,DC,2020/02/21 00:00:00+00,2,"{DC, 50 kW, CHAdeMO, Status: Operative, Count:1},{DC, 50 kW, Type 2 CCS, Status: Operative, Count:1}",True,{25BF26AF-9F60-4C6D-85AE-90309AEAF4F1}
2065961.2865,5766349.645,109259,Tokomaru Bay,ChargeNet NZ,Firstlight Network Ltd,"25 Waitangi Street, Tokomaru Bay 4079, New Zealand",True,1,False,Unlimited,False,-38.130411,178.314844,DC,2020/10/27 00:00:00+00,2,"{DC, 25 kW, CHAdeMO, Status: Operative, Count:1},{DC, 25 kW, Type 2 CCS, Status: Operative, Count:1}",True,{1B700972-8F13-4A34-A09A-5D0484E138B2}
1885089.2645,5774089.1181,109260,Rotorua,ChargeNet NZ,Unison Networks Limited,"1134 Haupapa Street, Rotorua 3010, New Zealand",True,1,False,Unlimited,False,-38.136053,176.25273,DC,2016/09/28 00:00:00+00,2,"{DC, 50 kW, CHAdeMO, Status: Operative, Count:1},{DC, 50 kW, Type 2 CCS, Status: Operative, Count:1}",True,{264A5A16-D97A-475E-8667-8192F57D5A6C}
1884937.8006,5773437.1858,109261,Rotorua HPC,ChargeNet NZ,ChargeNet NZ,"Rotorua Central Mall, Rotorua 3010, New Zealand",True,1,True,Unlimited,False,-38.141967,176.251265,DC,2022/09/04 00:00:00+00,6,"{DC, 300 kW, Type 2 CCS, Status: Operative, Count:4},{DC, 50 kW, CHAdeMO, Status: Operative, Count:2}",True,{E4F07107-89C9-410B-AFE5-4FB52118CA53}
1886971.3973,5772673.2009,109262,Ngapuna,ChargeNet NZ,Ebbett Volkswagen,"270 Te Ngae Road, Rotorua 3010, New Zealand",True,1,True,Unlimited,False,-38.148197,176.274742,DC,2023/04/04 00:00:00+00,2,"{DC, 75 kW, Type 2 CCS, Status: Operative, Count:2}",True,{28BABC5A-2C50-4EB9-8DFA-90666CB6413C}
1884523.9809,5770903.6168,109263,Te Puia,ChargeNet NZ,ChargeNet NZ,"Hemo Rd, Rotorua 3010, NZ",True,1,False,Unlimited,False,-38.164895,176.247562,DC,2020/03/03 00:00:00+00,2,"{DC, 50 kW, CHAdeMO, Status: Operative, Count:1},{DC, 50 kW, Type 2 CCS, Status: Operative, Count:1}",True,{41536391-0FA9-4723-89D9-51417D52D790}
1851040.2444,5766106.2895,109264,Tokoroa,ChargeNet NZ,ChargeNet NZ,"Bridge Street, Tokoroa 3420, NZ",True,1,False,Unlimited,False,-38.218022,175.867543,DC,2018/08/30 00:00:00+00,2,"{DC, 50 kW, CHAdeMO, Status: Operative, Count:1},{DC, 50 kW, Type 2 CCS, Status: Operative, Count:1}",True,{BED85089-D124-4E98-BDA3-D16ED2852CA6}
1788978.1849,5755230.4014,109265,Te Kuiti,ChargeNet NZ,The Warehouse Ltd,"Cnr Rora and Alexandra St, Te Kuiti 3910, New Zealand",True,1,False,Unlimited,False,-38.331148,175.162076,DC,2021/03/08 00:00:00+00,2,"{DC, 25 kW, CHAdeMO, Status: Inoperative, Count:1},{DC, 25 kW, Type 2 CCS, Status: Operative, Count:1}",False,{502EDE13-A3AD-48CF-A9A8-07848743C17B}
1789062.7356,5755106.0577,109266,Te Kuiti,ChargeNet NZ,ChargeNet NZ,"53 Rora St, Te Kuiti 3910, New Zealand",True,1,False,Unlimited,False,-38.33225,175.163076,DC,2017/07/13 00:00:00+00,2,"{DC, 50 kW, Type 2 CCS, Status: Operative, Count:1},{DC, 50 kW, CHAdeMO, Status: Operative, Count:1}",True,{51EEAEAC-5A0D-4C2A-93B0-889EA07894E0}
1996318.6264,5744811.844,109267,Matawai,ChargeNet NZ,Firstlight Network Ltd,"6522 Matawai Road, Matawai 4095, New Zealand",True,1,False,Unlimited,False,-38.357157,177.535008,Mixed,,3,"{DC, 50 kW, CHAdeMO, Status: Operative, Count:1},{DC, 50 kW, Type 2 CCS, Status: Operative, Count:1},{AC, 22 kW, Type 2 Socketed, Status: Operative, Count:1}",True,{1E53DF06-6B42-4487-95BF-B02F625A7B22}
2062809.1547,5739397.7839,109268,Tolaga Bay,ChargeNet NZ,Firstlight Network Ltd,"Monkhouse St, Tolaga Bay 4077, New Zealand",True,1,False,Unlimited,False,-38.373898,178.296608,DC,,2,"{DC, 25 kW, CHAdeMO, Status: Operative, Count:1},{DC, 25 kW, Type 2 CCS, Status: Operative, Count:1}",True,{1AC32B9B-B3B2-462E-BAD7-A778B0C3A592}
1923266.6029,5736953.5907,109269,Murupara,ChargeNet NZ,Horizon Networks,"62 Pine Drive, Murupara 3025, NZ",True,1,False,Unlimited,False,-38.457178,176.704494,Mixed,2018/04/25 00:00:00+00,3,"{DC, 50 kW, CHAdeMO, Status: Operative, Count:1},{DC, 50 kW, Type 2 CCS, Status: Operative, Count:1},{AC, 22 kW, Type 2 Socketed, Status: Operative, Count:1}",True,{D0690CE2-7DD1-44F1-869C-22E8F0287886}
2037524.3935,5708088.6028,109270,Gisborne,ChargeNet NZ,Firstlight Network Ltd,"37 Gladstone Rd, Gisborne 4010, New Zealand",True,1,False,Unlimited,False,-38.667681,178.02786,Mixed,,3,"{DC, 50 kW, CHAdeMO, Status: Operative, Count:1},{DC, 50 kW, Type 2 CCS, Status: Operative, Count:1},{AC, 22 kW, Type 2 Socketed, Status: Operative, Count:1}",True,{61A307C3-7B8E-4FA9-9E06-B55E341A9B97}
2037307.0111,5707698.9737,109271,Gisborne,ChargeNet NZ,The Warehouse Ltd,"80 Customhouse St, Gisborne 4010, NZ",True,1,False,Unlimited,False,-38.671286,178.025616,DC,2021/03/09 00:00:00+00,2,"{DC, 25 kW, CHAdeMO, Status: Operative, Count:1},{DC, 25 kW, Type 2 CCS, Status: Operative, Count:1}",False,{CF300CAB-479F-4D1D-8D59-B19DF1FB8BFE}
1867247.5123,5713243.2827,109272,Drive EV,ChargeNet NZ,Drive EV Ltd,"60 Tuwharetoa St, Taupo 3330, New Zealand",True,1,False,Unlimited,False,-38.689086,176.072565,Mixed,2020/12/04 00:00:00+00,4,"{AC, 22 kW, Type 2 Socketed, Status: Operative, Count:2},{DC, 50 kW, CHAdeMO, Status: Operative, Count:1},{DC, 50 kW, Type 2 CCS, Status: Inoperative, Count:1}",True,{1CE1A070-E813-479C-B314-17D74546DFD3}
1867227.1268,5713131.5079,109273,Taupo HPC,ChargeNet NZ,ChargeNet NZ,"Roberts St, Taupo 3300, New Zealand",True,1,False,Unlimited,False,-38.690098,176.072374,DC,2021/03/25 00:00:00+00,6,"{DC, 300 kW, Type 2 CCS, Status: Operative, Count:4},{DC, 50 kW, CHAdeMO, Status: Operative, Count:2}",True,{30FC697D-5567-446C-9399-77A91CDD4075}
1867529.1777,5712836.2191,109274,Taupo Central,ChargeNet NZ,Unison Networks Limited,"1 Kaimanawa Street, Taupo 3330, New Zealand",True,1,False,Unlimited,False,-38.692664,176.075956,DC,2016/11/22 00:00:00+00,2,"{DC, 50 kW, CHAdeMO, Status: Operative, Count:1},{DC, 50 kW, Type 2 CCS, Status: Operative, Count:1}",True,{9B2D6287-C5A6-4EDD-9CD0-3CD0385F4B81}
1740812.0455,5715469.1724,109275,Mokau,ChargeNet NZ,ChargeNet NZ,"Cnr SH3 and Rerenga St, Mokau 4376, New Zealand",True,1,False,Unlimited,False,-38.698202,174.619256,DC,2021/11/23 00:00:00+00,2,"{DC, 50 kW, CHAdeMO, Status: Operative, Count:1},{DC, 50 kW, Type 2 CCS, Status: Operative, Count:1}",True,{917EB283-C225-4ED6-8630-2FB41129BFF5}
1892322.3015,5691278.1635,109276,Rangitaiki,ChargeNet NZ,Unison Networks Limited,"3281 State Highway 5, Iwitahi 3379, New Zealand",True,1,False,Unlimited,False,-38.878762,176.369708,Mixed,2017/07/05 00:00:00+00,3,"{DC, 50 kW, CHAdeMO, Status: Operative, Count:1},{DC, 50 kW, Type 2 CCS, Status: Operative, Count:1},{AC, 22 kW, Type 2 Socketed, Status: Operative, Count:1}",True,{94FD2F2E-5459-472C-B255-9F9C75491073}
2015098.1265,5673768.6942,109277,Morere,ChargeNet NZ,Firstlight Network Ltd,"3968 State Highway 2, Gisborne 4078, New Zealand",True,1,False,Unlimited,False,-38.986666,177.791665,DC,2018/05/04 00:00:00+00,2,"{DC, 25 kW, CHAdeMO, Status: Operative, Count:1},{DC, 25 kW, Type 2 CCS, Status: Operative, Count:1}",True,{5B77E233-597F-4721-B00E-6081E8B1A5E2}
1982773.4917,5670101.7876,109278,Wairoa,ChargeNet NZ,Firstlight Network Ltd,"75 Queen St, Wairoa 4108, New Zealand",True,1,False,Unlimited,False,-39.034329,177.421661,Mixed,,3,"{DC, 50 kW, CHAdeMO, Status: Operative, Count:1},{DC, 50 kW, Type 2 CCS, Status: Operative, Count:1},{AC, 22 kW, Type 2 Socketed, Status: Operative, Count:1}",True,{9B437638-6D26-4EBD-896F-B9F1A98CA5BE}
1693219.1108,5676239.2048,109279,New Plymouth,ChargeNet NZ,ChargeNet NZ,"78 Courtenay St, New Plymouth 4310, New Zealand",True,1,False,Unlimited,False,-39.05796,174.077402,DC,2020/11/30 00:00:00+00,2,"{DC, 50 kW, CHAdeMO, Status: Operative, Count:1},{DC, 50 kW, Type 2 CCS, Status: Inoperative, Count:1}",True,{0436BA92-4873-452F-9064-AF90F8A55AF8}
2021705.5752,5662947.3004,109280,Mahia,ChargeNet NZ,Firstlight Network Ltd,"43 Moana Drive, Mahia 4198, NZ",True,1,False,Unlimited,False,-39.080674,177.874369,DC,2020/11/06 00:00:00+00,2,"{DC, 25 kW, CHAdeMO, Status: Operative, Count:1},{DC, 25 kW, Type 2 CCS, Status: Operative, Count:1}",True,{58CC7720-9FF5-4129-ADB6-94F154B41F33}
1946101.4655,5660784.554,109281,Putorino,ChargeNet NZ,Unison Networks Limited,"5464 State Highway 2, Putorino 4181, NZ",True,1,False,Unlimited,False,-39.133366,177.003793,Mixed,2018/06/05 00:00:00+00,3,"{DC, 50 kW, CHAdeMO, Status: Operative, Count:1},{DC, 50 kW, Type 2 CCS, Status: Operative, Count:1},{AC, 22 kW, Type 2 Socketed, Status: Operative, Count:1}",True,{A3FB69B6-FF61-465D-9038-566FFC3CF4E7}
1913160.1046,5657602.2305,109282,McVicar Rd,ChargeNet NZ,Unison Networks Limited,"4237 State Highway 5, Te Haroto 4182, New Zealand",True,1,False,Unlimited,False,-39.174447,176.624938,Mixed,2017/07/05 00:00:00+00,3,"{DC, 50 kW, CHAdeMO, Status: Operative, Count:1},{DC, 50 kW, Type 2 CCS, Status: Operative, Count:1},{AC, 22 kW, Type 2 Socketed, Status: Operative, Count:1}",True,{7C58BB93-D6A8-4071-82F9-0315849DAF8E}
1807498.0186,5660784.5833,109283,National Park,ChargeNet NZ,ChargeNet NZ,"Cnr SH4 & Waimarino Tokaanu Road, National Park 3989, NZ",True,1,False,Unlimited,False,-39.177432,175.402147,DC,2023/05/23 00:00:00+00,2,"{DC, 50 kW, Type 2 CCS, Status: Operative, Count:1},{DC, 50 kW, CHAdeMO, Status: Operative, Count:1}",True,{DA033546-8529-47BD-B50D-0DCB3D998BD5}
1806608.1908,5634164.6611,109284,Ohakune,ChargeNet NZ,ChargeNet NZ,"30 Ayr St, Ohakune 4625, NZ",True,1,False,Unlimited,False,-39.417303,175.400028,DC,2018/11/09 00:00:00+00,2,"{DC, 50 kW, CHAdeMO, Status: Operative, Count:1},{DC, 50 kW, Type 2 CCS, Status: Operative, Count:1}",True,{E3D6B5E7-0B2B-45FC-801C-2441BCB17996}
1674027.852,5632450.2765,109285,Opunake,ChargeNet NZ,ChargeNet NZ,"23 Napier St, Opunake 4616, NZ",True,1,False,Unlimited,False,-39.454334,173.86043,DC,2018/09/04 00:00:00+00,2,"{DC, 50 kW, CHAdeMO, Status: Operative, Count:1},{DC, 50 kW, Type 2 CCS, Status: Operative, Count:1}",True,{17E4A858-0928-4109-986D-A498B25D95FB}
1829609.8294,5626411.6359,109286,Waiouru,ChargeNet NZ,ChargeNet NZ,"State Highway 1, Waiouru 4861, New Zealand",True,1,False,Unlimited,False,-39.48127,175.66963,DC,2017/06/05 00:00:00+00,4,"{DC, 50 kW, CHAdeMO, Status: Operative, Count:2},{DC, 50 kW, Type 2 CCS, Status: Operative, Count:2}",True,{0C61B6DB-7E96-4962-9F09-2113FD008B99}
1936677.7863,5621249.018,109287,Napier,ChargeNet NZ,Unison Networks Limited,"206 Dickens St, Napier 4110, New Zealand",True,1,False,Unlimited,False,-39.492478,176.914804,DC,2016/11/22 00:00:00+00,2,"{DC, 50 kW, CHAdeMO, Status: Operative, Count:1},{DC, 50 kW, Type 2 CCS, Status: Operative, Count:1}",True,{61E158EF-65B9-42C8-89CE-960A6CBB2F19}
1931955.3509,5617760.1393,109288,Greenmeadows,ChargeNet NZ,ChargeNet NZ,"9 Gloucester St, Napier 4112, New Zealand",True,1,False,Unlimited,False,-39.525678,176.861749,DC,2019/09/03 00:00:00+00,2,"{DC, 50 kW, CHAdeMO, Status: Operative, Count:1},{DC, 50 kW, Type 2 CCS, Status: Operative, Count:1}",True,{1E223B07-B996-4BD1-91A4-32A791D55009}
1710173.818,5616801.8629,109289,Hawera,ChargeNet NZ,ChargeNet NZ,"54 Princes St, Hawera 4610, New Zealand",True,1,False,Unlimited,False,-39.591433,174.283066,DC,2018/03/22 00:00:00+00,2,"{DC, 50 kW, CHAdeMO, Status: Operative, Count:1},{DC, 50 kW, Type 2 CCS, Status: Operative, Count:1}",True,{54C35D5C-7BC9-455B-AA85-9ABA73F43321}
1929860.1532,5605040.5403,109290,Hastings,ChargeNet NZ,Unison Networks Limited,"100 Queen St W, Hastings 4122, New Zealand",True,1,False,Unlimited,False,-39.640836,176.843748,DC,2016/09/28 00:00:00+00,2,"{DC, 50 kW, CHAdeMO, Status: Operative, Count:1},{DC, 50 kW, Type 2 CCS, Status: Operative, Count:1}",True,{2CB30659-4958-4E79-A3C6-E5F953FC7B54}
1840088.3015,5604402.852,109291,Taihape,ChargeNet NZ,ChargeNet NZ,"12 Huia St, Taihape 4720, NZ",True,1,False,Unlimited,False,-39.676483,175.799291,DC,2018/08/27 00:00:00+00,2,"{DC, 50 kW, CHAdeMO, Status: Operative, Count:1},{DC, 50 kW, Type 2 CCS, Status: Operative, Count:1}",True,{6B78B5A0-FA5C-493D-88A4-4D72E2F8EB59}
1740096.1449,5597235.6807,109292,Waverley,ChargeNet NZ,ChargeNet NZ,"Chester Street, Waverley 4510, New Zealand",True,1,False,Unlimited,False,-39.763289,174.63557,DC,2019/12/19 00:00:00+00,2,"{DC, 50 kW, CHAdeMO, Status: Operative, Count:1},{DC, 50 kW, Type 2 CCS, Status: Operative, Count:1}",True,{8B12174B-97EB-4D2C-A809-B6361DBCA156}
1838680.9535,5589637.6646,109293,Mangaweka,ChargeNet NZ,ChargeNet NZ,"6336b Mangawharariki Road, Mangaweka 4797, New Zealand",True,1,False,Unlimited,False,-39.809757,175.788255,DC,2016/12/21 00:00:00+00,2,"{DC, 50 kW, Type 2 CCS, Status: Operative, Count:1},{DC, 50 kW, CHAdeMO, Status: Operative, Count:1}",True,{EE25B719-8C3C-4DC0-97D0-C13B52E0DBA9}
1774365.0102,5578485.1245,109294,Whanganui,ChargeNet NZ,ChargeNet NZ,"374 Victoria Ave, Whanganui 4500, New Zealand",True,1,False,Unlimited,False,-39.9258,175.040425,DC,2020/12/08 00:00:00+00,2,"{DC, 50 kW, CHAdeMO, Status: Operative, Count:1},{DC, 50 kW, Type 2 CCS, Status: Operative, Count:1}",True,{5EBF2BF8-5B46-4863-8994-476B191ADFA3}
1774322.0689,5578465.6714,109295,Whanganui,ChargeNet NZ,ChargeNet NZ,"167 Glasgow St, Whanganui 4500, New Zealand",True,1,False,Unlimited,False,-39.925984,175.039928,DC,2018/07/25 00:00:00+00,2,"{DC, 50 kW, CHAdeMO, Status: Inoperative, Count:1},{DC, 50 kW, Type 2 CCS, Status: Inoperative, Count:1}",True,{32A9938D-C94C-47D3-BB12-6C15A898B566}
1903546.5885,5566840.2217,109296,Waipukurau,ChargeNet NZ,Centralines Ltd,"34 Russell St, Waipukurau 4200, New Zealand",True,1,False,Unlimited,False,-39.994101,176.555381,DC,2016/09/28 00:00:00+00,2,"{DC, 50 kW, Type 2 CCS, Status: Operative, Count:1},{DC, 50 kW, CHAdeMO, Status: Operative, Count:1}",True,{0FE12BF9-585D-4E6C-8FBD-B90DC21DE837}
1802915.7692,5561083.1256,109297,Marton,ChargeNet NZ,ChargeNet NZ,"427 Wellington Rd, Marton 4710, New Zealand",True,1,False,Unlimited,False,-40.076095,175.37971,DC,2021/01/21 00:00:00+00,2,"{DC, 50 kW, CHAdeMO, Status: Operative, Count:1},{DC, 50 kW, Type 2 CCS, Status: Operative, Count:1}",True,{9238DF79-9B07-433F-B3CE-0FF73B803A39}
1803148.5325,5550056.8638,109298,Bulls Te Matapihi ,ChargeNet NZ,ChargeNet NZ,"4 Criterion Street, Bulls 4818, New Zealand",True,1,False,Unlimited,False,-40.175295,175.385907,DC,2019/10/04 00:00:00+00,5,"{DC, 300 kW, Type 2 CCS, Status: Operative, Count:2},{DC, 50 kW, CHAdeMO, Status: Operative, Count:1},{DC, 50 kW, Type 2 CCS, Status: Operative, Count:1},{DC, 50 kW, CHAdeMO, Status: Inoperative, Count:1}",True,{FC6AB673-A4F1-4931-9B49-D899174F0CB8}
1863740.9875,5544372.7753,109299,Dannevirke,ChargeNet NZ,ChargeNet NZ,"Gordon Street Carpark, Dannevirke 4930, New Zealand",True,1,False,Unlimited,False,-40.20959,176.099002,DC,2017/12/20 00:00:00+00,2,"{DC, 50 kW, CHAdeMO, Status: Operative, Count:1},{DC, 50 kW, Type 2 CCS, Status: Operative, Count:1}",True,{2FF9DFAD-EDCB-4F4F-9208-5B30F2358C18}
1818610.7525,5543756.7859,109300,Feilding,ChargeNet NZ,ChargeNet NZ,"42 Aorangi St, Feilding 4702, New Zealand",True,1,False,Unlimited,False,-40.228115,175.56948,DC,2019/06/21 00:00:00+00,2,"{DC, 50 kW, CHAdeMO, Status: Operative, Count:1},{DC, 50 kW, Type 2 CCS, Status: Operative, Count:1}",True,{5F3D8793-C16C-47A2-A579-7A64CE2CA6C3}
1843421.0818,5530929.5199,109301,Woodville,ChargeNet NZ,ChargeNet NZ,"iSite, Woodville 4920, New Zealand",True,1,False,Unlimited,False,-40.336698,175.865639,DC,2017/11/15 00:00:00+00,2,"{DC, 50 kW, CHAdeMO, Status: Operative, Count:1},{DC, 50 kW, Type 2 CCS, Status: Operative, Count:1}",True,{06BEF47C-65B4-47F7-BB6E-147E7D839CEA}
1821804.1139,5529507.6436,109302,Palmerston North,ChargeNet NZ,ChargeNet NZ,"The Square, Palmerston North 4410, New Zealand",True,1,False,Unlimited,False,-40.355518,175.611913,DC,2023/05/02 00:00:00+00,2,"{DC, 50 kW, Type 2 CCS, Status: Operative, Count:1},{DC, 50 kW, CHAdeMO, Status: Operative, Count:1}",True,{1EE04693-04BE-45A2-BF02-8B51694C915A}
1821837.9055,5529022.9712,109303,Palmerston North,ChargeNet NZ,ChargeNet NZ,"327 Ferguson St, Palmerston North, New Zealand",True,1,False,Unlimited,False,-40.359871,175.612479,DC,2021/05/19 00:00:00+00,2,"{DC, 50 kW, CHAdeMO, Status: Operative, Count:1},{DC, 50 kW, Type 2 CCS, Status: Inoperative, Count:1}",True,{42C3F18C-14FF-43EA-B520-84698A57DC7E}
1841035.0107,5518187.6295,109304,Pahiatua,ChargeNet NZ,Tararua District Council,"2 Wakeman St, Pahiatua 4910, NZ",True,1,False,Unlimited,False,-40.452043,175.842403,DC,2021/06/16 00:00:00+00,4,"{DC, 38 kW, CHAdeMO, Status: Operative, Count:2},{DC, 38 kW, Type 2 CCS, Status: Operative, Count:2}",True,{F8850E24-B02E-4850-B595-E4484729ABFB}
1793385.3831,5517392.6007,109305,Foxton,ChargeNet NZ,ChargeNet NZ,"Clyde St, Foxton 4814, New Zealand",True,1,False,Unlimited,False,-40.47165,175.281212,DC,2019/12/09 00:00:00+00,4,"{DC, 50 kW, CHAdeMO, Status: Operative, Count:2},{DC, 50 kW, Type 2 CCS, Status: Operative, Count:2}",True,{77B9B3CB-B8C2-48F6-85A1-AAFA9FCD211A}
1804141.0235,5508745.8211,109306,Shannon,ChargeNet NZ,ChargeNet NZ,"Plimmer Tce, Shannon 4821, NZ",True,1,False,Unlimited,False,-40.546907,175.410771,DC,2020/06/26 00:00:00+00,4,"{DC, 50 kW, CHAdeMO, Status: Operative, Count:2},{DC, 50 kW, Type 2 CCS, Status: Operative, Count:1},{DC, 50 kW, Type 2 CCS, Status: Inoperative, Count:1}",True,{84C76077-DBAC-4264-A077-CF48E6D90511}
1793197.4766,5500526.812,109307,Levin,ChargeNet NZ,ChargeNet NZ,"21 Bath St, Levin 5510, NZ",True,1,False,Unlimited,False,-40.623516,175.284152,DC,2018/05/15 00:00:00+00,2,"{DC, 50 kW, CHAdeMO, Status: Operative, Count:1},{DC, 50 kW, Type 2 CCS, Status: Operative, Count:1}",True,{F1438493-4D23-4CC5-AE4F-A613B39D79A6}
1828612.9295,5497198.3542,109308,Eketahuna,ChargeNet NZ,ChargeNet NZ,"2 Haswell Street, Eketahuna 4900, NZ",True,1,False,Unlimited,False,-40.644432,175.703665,DC,2021/12/15 00:00:00+00,2,"{DC, 50 kW, CHAdeMO, Status: Operative, Count:1},{DC, 50 kW, Type 2 CCS, Status: Operative, Count:1}",True,{83E00683-1A9D-4096-A586-314813467527}
1781700.1149,5485256.2536,109309,Otaki,ChargeNet NZ,ChargeNet NZ,"186 Waerenga Road, Otaki 5512, New Zealand",True,1,False,Unlimited,False,-40.763595,175.152736,DC,2016/11/22 00:00:00+00,2,"{DC, 50 kW, CHAdeMO, Status: Inoperative, Count:1},{DC, 50 kW, Type 2 CCS, Status: Inoperative, Count:1}",True,{A0A31C54-A82B-431E-A5B8-AEB8F6BF881D}
1770604.9289,5474667.7592,109310,Waikanae,ChargeNet NZ,ChargeNet NZ,"Opposite 34 Tutere St, Waikanae 5036, NZ",True,1,False,Unlimited,False,-40.861299,175.02426,DC,2019/05/30 00:00:00+00,2,"{DC, 50 kW, CHAdeMO, Status: Operative, Count:1},{DC, 50 kW, Type 2 CCS, Status: Operative, Count:1}",True,{673F2319-38C2-406D-9DB8-D60825D0868A}
1583661.329,5476556.3005,109311,Takaka,ChargeNet NZ,Network Tasman Ltd,"16 Willow Street, Golden Bay 7110, NZ",True,1,False,Unlimited,False,-40.861889,172.806131,Mixed,2018/08/01 00:00:00+00,3,"{DC, 50 kW, Type 2 CCS, Status: Operative, Count:1},{DC, 50 kW, CHAdeMO, Status: Operative, Count:1},{AC, 43 kW, Type 2 Tethered, Status: Operative, Count:1}",True,{987435F4-CB5D-4E18-A822-1440A18656D6}
1768628.2875,5468520.1996,109312,Paraparaumu,ChargeNet NZ,ChargeNet NZ,"Rimu Rd, Paraparaumu 5032, NZ",True,1,False,Unlimited,False,-40.917054,175.002489,DC,2018/10/23 00:00:00+00,4,"{DC, 50 kW, Type 2 CCS, Status: Operative, Count:2},{DC, 50 kW, CHAdeMO, Status: Operative, Count:1},{DC, 50 kW, CHAdeMO, Status: Inoperative, Count:1}",True,{BCF6F52C-4551-4225-9184-81BA074488BF}
1766876.5239,5468365.7269,109313,Raumati,ChargeNet NZ,ChargeNet NZ,"15 Raumati Rd, Paraparaumu 5032, NZ",True,1,False,Unlimited,False,-40.918804,174.98174,DC,2019/03/14 00:00:00+00,2,"{DC, 50 kW, CHAdeMO, Status: Operative, Count:1},{DC, 50 kW, Type 2 CCS, Status: Operative, Count:1}",True,{4CCFA142-E4DD-4A35-9384-5C768681EC35}
1824399.5416,5463521.8118,109314,Masterton,ChargeNet NZ,ChargeNet NZ,"3 Dixon Street, Masterton 5810, New Zealand",True,1,False,Unlimited,False,-40.948637,175.665992,DC,2017/05/11 00:00:00+00,2,"{DC, 50 kW, Type 2 CCS, Status: Operative, Count:1},{DC, 50 kW, CHAdeMO, Status: Inoperative, Count:1}",True,{5EFF7EDA-4095-43DB-9D99-C63AD1D5F742}
1764152.9337,5460797.8958,109315,Paekakariki,ChargeNet NZ,ChargeNet NZ,"7D Wellington Rd, Paekakariki 5034, NZ",True,1,False,Unlimited,False,-40.987489,174.95142,DC,2019/03/25 00:00:00+00,2,"{DC, 50 kW, CHAdeMO, Status: Operative, Count:1},{DC, 50 kW, Type 2 CCS, Status: Operative, Count:1}",True,{2A658608-8F33-4272-AB46-CBD9D76F34AE}
1756958.5008,5449026.4061,109316,Paremata,ChargeNet NZ,ChargeNet NZ,"93-97 Mana Esplanade, Porirua 5026, New Zealand",True,1,False,Unlimited,False,-41.094888,174.868935,DC,2019/08/08 00:00:00+00,2,"{DC, 25 kW, CHAdeMO, Status: Operative, Count:1},{DC, 25 kW, Type 2 CCS, Status: Operative, Count:1}",True,{CACA9280-9804-4C66-A3B0-1A74739BF824}
1600840.484,5448552.0482,109317,Motueka,ChargeNet NZ,The Warehouse Ltd,"270 High St, Motueka 7120, NZ",True,1,False,Unlimited,False,-41.114321,173.010011,DC,2021/01/26 00:00:00+00,2,"{DC, 25 kW, CHAdeMO, Status: Operative, Count:1},{DC, 25 kW, Type 2 CCS, Status: Operative, Count:1}",False,{9025FC42-63D7-46FD-B3B6-39F163CF048D}
1600926.2841,5448528.7253,109318,Motueka,ChargeNet NZ,ChargeNet NZ,"271 High St, Motueka 7120, NZ",True,1,False,Unlimited,False,-41.114531,173.011033,DC,2018/09/30 00:00:00+00,2,"{DC, 50 kW, CHAdeMO, Status: Operative, Count:1},{DC, 50 kW, Type 2 CCS, Status: Operative, Count:1}",True,{212E7EFB-D772-40FB-94DF-4DD05B7E9B51}
1795258.7595,5445669.6766,109319,Featherston,ChargeNet NZ,ChargeNet NZ,"43 Fitzherbert Street, Featherston 5710, New Zealand",True,1,False,Unlimited,False,-41.116804,175.325726,DC,2016/09/05 00:00:00+00,2,"{DC, 50 kW, CHAdeMO, Status: Operative, Count:1},{DC, 50 kW, Type 2 CCS, Status: Operative, Count:1}",True,{FF679075-29A2-4C9A-87C0-4BD29FA8D12B}
1773841.7179,5445425.5752,109320,Upper Hutt,ChargeNet NZ,ChargeNet NZ,"24 Queen St, Upper Hutt 5018, New Zealand",True,1,False,Unlimited,False,-41.123868,175.070866,DC,2017/04/27 00:00:00+00,2,"{DC, 50 kW, CHAdeMO, Status: Operative, Count:1},{DC, 50 kW, Type 2 CCS, Status: Operative, Count:1}",True,{3535CDAF-E229-402A-864D-B5BC44B918C4}
1754580.8821,5444942.3558,109321,Porirua,ChargeNet NZ,ChargeNet NZ,"12 Parumoana Street, Porirua 5022, New Zealand",True,1,False,Unlimited,False,-41.132114,174.841666,DC,2020/10/16 00:00:00+00,2,"{DC, 50 kW, CHAdeMO, Status: Operative, Count:1},{DC, 50 kW, Type 2 CCS, Status: Operative, Count:1}",True,{5C51EB95-A4DA-4D2C-B553-978F404DF749}
1768884.2585,5442806.8696,109322,Silver Stream,ChargeNet NZ,ChargeNet NZ,"28 Whitemans Rd, Upper Hutt 5019, New Zealand",True,1,False,Unlimited,False,-41.148489,175.012567,DC,2019/08/07 00:00:00+00,2,"{DC, 25 kW, Type 2 CCS, Status: Inoperative, Count:1},{DC, 25 kW, CHAdeMO, Status: Operative, Count:1}",True,{EAD382A2-BA44-48C8-96B1-380480EB0E43}
1751641.5964,5437150.6401,109323,Churton Park,ChargeNet NZ,ChargeNet NZ,"69 Lakewood Ave, Wellington 6037, New Zealand",True,1,False,Unlimited,False,-41.202821,174.808593,DC,2019/07/24 00:00:00+00,2,"{DC, 25 kW, CHAdeMO, Status: Operative, Count:1},{DC, 25 kW, Type 2 CCS, Status: Operative, Count:1}",True,{544A482F-8D5F-4A41-8F14-4EC26896AC39}
1759653.3042,5436026.4552,109324,Lower Hutt,ChargeNet NZ,ChargeNet NZ,"1 Stevens Grove, Lower Hutt 5010, New Zealand",True,1,False,Unlimited,False,-41.211402,174.904391,DC,2016/08/25 00:00:00+00,4,"{DC, 50 kW, Type 2 CCS, Status: Operative, Count:1},{DC, 25 kW, CHAdeMO, Status: Operative, Count:1},{DC, 25 kW, Type 2 CCS, Status: Operative, Count:1},{DC, 50 kW, CHAdeMO, Status: Inoperative, Count:1}",True,{E55AA098-89E0-4A96-B5C2-C52BE36592DC}
1751224.6667,5434922.4866,109325,Johnsonville,ChargeNet NZ,ChargeNet NZ,"Wanaka St, Wellington 6037, New Zealand",True,1,False,Unlimited,False,-41.22296,174.804174,DC,2020/12/01 00:00:00+00,8,"{DC, 25 kW, Type 2 CCS, Status: Operative, Count:3},{DC, 25 kW, CHAdeMO, Status: Inoperative, Count:2},{DC, 25 kW, CHAdeMO, Status: Operative, Count:2},{DC, 25 kW, Type 2 CCS, Status: Inoperative, Count:1}",True,{69952E9B-714D-4C68-B49C-43549228167C}
1756987.1624,5434706.3997,109326,Petone,ChargeNet NZ,ChargeNet NZ,"114-124 Jackson St, Lower Hutt 5012, New Zealand",True,1,False,Unlimited,False,-41.223808,174.872944,DC,2019/08/28 00:00:00+00,4,"{DC, 25 kW, Type 2 CCS, Status: Inoperative, Count:2},{DC, 25 kW, CHAdeMO, Status: Inoperative, Count:1},{DC, 25 kW, CHAdeMO, Status: Operative, Count:1}",True,{68673033-CCCE-4C93-A510-86C420593F2E}
1526982.6122,5432965.4757,109327,Karamea,ChargeNet NZ,ChargeNet NZ,"103 Bridge Street, Karamea 7893, NZ",True,1,False,Unlimited,False,-41.251426,172.128479,DC,2019/01/11 00:00:00+00,2,"{DC, 25 kW, CHAdeMO, Status: Operative, Count:1},{DC, 25 kW, Type 2 CCS, Status: Operative, Count:1}",True,{6462F305-AD8E-4B3F-ACB1-D496C18DB26B}
1623852.9116,5431219.8021,109328,Nelson,ChargeNet NZ,Network Tasman Ltd,"81 Trafalgar Street, Nelson 7010, NZ",True,1,False,Unlimited,False,-41.270097,173.284786,Mixed,2018/08/01 00:00:00+00,3,"{DC, 50 kW, Type 2 CCS, Status: Operative, Count:1},{DC, 50 kW, CHAdeMO, Status: Operative, Count:1},{AC, 43 kW, Type 2 Tethered, Status: Operative, Count:1}",True,{4A6FB000-626E-4FF6-881B-E22C06316A43}
1623226.5542,5430586.1507,109329,Nelson,ChargeNet NZ,ChargeNet NZ,"75 Vanguard St, Nelson 7010, NZ",True,1,False,Unlimited,False,-41.275823,173.277332,DC,2018/08/14 00:00:00+00,2,"{DC, 50 kW, CHAdeMO, Status: Operative, Count:1},{DC, 50 kW, Type 2 CCS, Status: Operative, Count:1}",True,{C6E8B01E-F417-4AD3-8049-704025210238}
1664223.3548,5430106.6634,109330,Havelock,ChargeNet NZ,ChargeNet NZ,"68 Main Rd, Havelock 7100, NZ",True,1,False,Unlimited,False,-41.277922,173.766868,DC,2018/05/31 00:00:00+00,2,"{DC, 50 kW, CHAdeMO, Status: Operative, Count:1},{DC, 50 kW, Type 2 CCS, Status: Operative, Count:1}",True,{B0BCA836-272F-41EB-B05A-77E55D95F63A}
1747166.607,5428848.2797,109331,Rodney St,ChargeNet NZ,ChargeNet NZ,"Rodney St, Wellington 6012, NZ",True,1,False,Unlimited,False,-41.278398,174.757247,AC,2019/10/04 00:00:00+00,2,"{AC, 7 kW, Type 2 Socketed, Status: Operative, Count:2}",True,{9971612F-AE86-4F7B-9D7F-7DD83BFE030B}
1745553.5785,5428279.6582,109332,Karori,ChargeNet NZ,ChargeNet NZ,"236 Karori Rd, Wellington 6012, New Zealand",True,1,False,Unlimited,False,-41.28381,174.738131,DC,2019/09/06 00:00:00+00,2,"{DC, 25 kW, CHAdeMO, Status: Operative, Count:1},{DC, 25 kW, Type 2 CCS, Status: Operative, Count:1}",True,{37EF02B4-2B7C-4DE9-BA37-62C04A839F31}
1748732.8369,5428127.6757,109333,Grey Street,ChargeNet NZ,Contact Energy Ltd,"Grey Street, Wellington 6011, NZ",True,1,False,Unlimited,False,-41.284599,174.776116,DC,2018/08/28 00:00:00+00,2,"{DC, 50 kW, Type 2 CCS, Status: Operative, Count:1},{DC, 50 kW, CHAdeMO, Status: Inoperative, Count:1}",True,{0D3617B9-335F-4972-9D55-6453DEC0FF97}
1748728.9926,5427571.301,109334,Bond St,ChargeNet NZ,ChargeNet NZ,"25 Bond St, Wellington 6011, NZ",True,1,False,Unlimited,False,-41.289609,174.776206,AC,2019/02/20 00:00:00+00,2,"{AC, 22 kW, Type 2 Socketed, Status: Operative, Count:2}",True,{7E0B96BE-334F-4BF4-BE28-B0FC46D50037}
1749281.8741,5427358.2652,109335,Barnett St Carpark,ChargeNet NZ,Contact Energy Ltd,"Barnett Street, Wellington 6011, New Zealand",True,1,False,Unlimited,False,-41.291425,174.782858,DC,2018/08/27 00:00:00+00,2,"{DC, 50 kW, Type 2 CCS, Status: Operative, Count:1},{DC, 50 kW, CHAdeMO, Status: Inoperative, Count:1}",True,{C3A7E599-9C96-45C2-964E-4597F19A6486}
1747246.0196,5427007.0619,109336,Holloway Rd,ChargeNet NZ,ChargeNet NZ,"Holloway Rd, Wellington 6021, NZ",True,1,False,Unlimited,False,-41.294961,174.75864,AC,2019/11/12 00:00:00+00,2,"{AC, 7 kW, Type 2 Socketed, Status: Operative, Count:2}",True,{B4CC1738-AB0E-47C7-BA32-AAA3706A6FC9}
1747822.965,5426762.6611,109337,Epuni St,ChargeNet NZ,ChargeNet NZ,"Epuni St, Wellington 6021, NZ",True,1,False,Unlimited,False,-41.297056,174.765587,AC,2019/09/26 00:00:00+00,2,"{AC, 7 kW, Type 2 Socketed, Status: Operative, Count:2}",True,{2E4C8361-E3F7-4A01-9D8D-53A208756B4A}
1749603.4405,5426530.8508,109338,Austin St,ChargeNet NZ,ChargeNet NZ,"Austin St, Wellington 6011, NZ",True,1,False,Unlimited,False,-41.298815,174.7869,AC,2019/09/26 00:00:00+00,2,"{AC, 7 kW, Type 2 Socketed, Status: Operative, Count:2}",True,{FC9D243A-A65B-4858-9D15-074FE64CD188}
1747319.8153,5426292.2893,109339,Karepa St,ChargeNet NZ,ChargeNet NZ,"Karepa St, Wellington 6021, NZ",True,1,False,Unlimited,False,-41.301383,174.759694,AC,2019/11/20 00:00:00+00,2,"{AC, 7 kW, Type 2 Socketed, Status: Operative, Count:2}",True,{A4D3E1DC-E0FF-4CBF-9EC4-77E8E7E2CB0A}
1752710.7587,5426075.4563,109340,Miramar North Rd,ChargeNet NZ,ChargeNet NZ,"Miramar North Rd, Wellington 6022, NZ",True,1,False,Unlimited,False,-41.302333,174.824111,AC,2019/11/18 00:00:00+00,2,"{AC, 7 kW, Type 2 Socketed, Status: Operative, Count:2}",True,{40E77E46-1E35-4840-B83C-364524CB19CD}
1748502.1996,5425627.6842,109341,Wright St,ChargeNet NZ,ChargeNet NZ,"Wright St, Wellington 6021, NZ",True,1,False,Unlimited,False,-41.30715,174.773973,AC,2019/09/26 00:00:00+00,2,"{AC, 7 kW, Type 2 Socketed, Status: Operative, Count:2}",True,{00029C5C-894C-424E-A1D0-1D0204EC3A2E}
1749444.4361,5425409.9897,109342,North Coromandel St,ChargeNet NZ,ChargeNet NZ,"9 Coromandel St, Wellington 6021, NZ",True,1,False,Unlimited,False,-41.308936,174.785277,AC,2019/09/26 00:00:00+00,2,"{AC, 7 kW, Type 2 Socketed, Status: Operative, Count:2}",True,{1559CE00-FC62-47DC-861F-2F12D2E9DDAA}
1748793.483,5425239.3127,109343,Hall St,ChargeNet NZ,ChargeNet NZ,"Hall St, Wellington 6011, NZ",True,1,False,Unlimited,False,-41.310593,174.777546,AC,2019/09/26 00:00:00+00,2,"{AC, 7 kW, Type 2 Socketed, Status: Operative, Count:2}",True,{0445265C-4348-4AA8-BC38-1E4D506BAD23}
1749508.9562,5425102.4431,109344,South Coromandel St,ChargeNet NZ,ChargeNet NZ,"66 Coromandel St, Wellington 6021, NZ",True,1,False,Unlimited,False,-41.311693,174.786123,AC,2019/09/26 00:00:00+00,2,"{AC, 7 kW, Type 2 Socketed, Status: Operative, Count:2}",True,{581368E6-55FC-4D6B-9ED4-8810B517B258}
1750415.9656,5424336.6556,109345,Kilbirnie,ChargeNet NZ,ChargeNet NZ,"78 Rongotai Rd, Wellington 6022, New Zealand",True,1,False,Unlimited,False,-41.318419,174.797143,DC,2019/10/30 00:00:00+00,2,"{DC, 50 kW, Type 2 CCS, Status: Operative, Count:1},{DC, 50 kW, CHAdeMO, Status: Inoperative, Count:1}",True,{067B0DAF-4ED5-4B07-90A9-8909E24479A0}
1749391.8254,5424257.1703,109346,Wellington Zoo,ChargeNet NZ,ChargeNet NZ,"Manchester Street, Wellington 6021, New Zealand",True,1,False,Unlimited,False,-41.319325,174.784932,DC,2019/07/24 00:00:00+00,4,"{DC, 25 kW, Type 2 CCS, Status: Inoperative, Count:1},{DC, 25 kW, CHAdeMO, Status: Operative, Count:1},{DC, 25 kW, CHAdeMO, Status: Unknown, Count:1},{DC, 25 kW, Type 2 CCS, Status: Unknown, Count:1}",True,{90CB3D80-7DD1-4264-864B-CAE21D450DDC}
1748338.5268,5423830.9361,109347,Stanley St,ChargeNet NZ,ChargeNet NZ,"66 Stanley St, Wellington 6023, NZ",True,1,False,Unlimited,False,-41.323357,174.772457,AC,2020/03/06 00:00:00+00,2,"{AC, 7 kW, Type 2 Socketed, Status: Operative, Count:2}",True,{2ACBDE6D-12C7-4E19-8596-1D81BF3CEDB7}
1748660.6589,5423116.7243,109348,Melbourne Rd,ChargeNet NZ,ChargeNet NZ,"Melbourne Rd, Wellington 6023, NZ",True,1,False,Unlimited,False,-41.329728,174.776479,AC,2019/12/05 00:00:00+00,2,"{AC, 7 kW, Type 2 Socketed, Status: Operative, Count:2}",True,{C354A791-924C-432F-8C4E-3B3325CA3CF4}
1749454.2106,5423049.446,109349,Hornsey Rd,ChargeNet NZ,ChargeNet NZ,"Hornsey Rd, Wellington 6023, NZ",True,1,False,Unlimited,False,-41.330187,174.785974,AC,2019/11/26 00:00:00+00,2,"{AC, 7 kW, Type 2 Socketed, Status: Operative, Count:2}",True,{AB3FF6F3-37A4-4B54-91DE-807A2D228E32}
1748969.0545,5422980.4496,109350,Jackson St,ChargeNet NZ,ChargeNet NZ,"Jackson St, Wellington 6023, NZ",True,1,False,Unlimited,False,-41.330898,174.780196,AC,2019/12/05 00:00:00+00,2,"{AC, 7 kW, Type 2 Socketed, Status: Operative, Count:2}",True,{DB0BA565-5C1B-4F24-B7C3-CFCC605635BD}
1748381.2951,5422617.8535,109351,Island Bay,ChargeNet NZ,ChargeNet NZ,"6 Medway St, Wellington 6023, New Zealand",True,1,False,Unlimited,False,-41.334271,174.773264,DC,2019/10/04 00:00:00+00,2,"{DC, 25 kW, Type 2 CCS, Status: Inoperative, Count:1},{DC, 25 kW, CHAdeMO, Status: Operative, Count:1}",True,{A1EE2F02-3DBC-47C4-8127-46D51EE8EACE}
1615421.7881,5423697.4716,109352,Richmond,ChargeNet NZ,Network Tasman Ltd,"280 Queen Street, Richmond 7020, NZ",True,1,False,Unlimited,False,-41.338061,173.184316,DC,2018/08/01 00:00:00+00,2,"{DC, 50 kW, CHAdeMO, Status: Operative, Count:1},{DC, 50 kW, Type 2 CCS, Status: Operative, Count:1}",True,{21ADBC97-107E-45A3-8CC8-C6C5DA0F9343}
1680322.2193,5409651.9858,109353,Spring Creek,ChargeNet NZ,ChargeNet NZ,"2226 State Highway 1, Blenheim 7202, NZ",True,1,False,Unlimited,False,-41.460704,173.961785,DC,2018/05/01 00:00:00+00,2,"{DC, 50 kW, CHAdeMO, Status: Operative, Count:1},{DC, 50 kW, Type 2 CCS, Status: Operative, Count:1}",True,{6392B966-0704-47C9-8BF4-0CD08C911579}
1677034.5219,5404266.9139,109354,Blenheim,ChargeNet NZ,ChargeNet NZ,"1 Westwood Avenue, Blenheim 7271, NZ",True,1,False,Unlimited,False,-41.509526,173.923111,DC,2018/07/04 00:00:00+00,2,"{DC, 50 kW, CHAdeMO, Status: Operative, Count:1},{DC, 50 kW, Type 2 CCS, Status: Operative, Count:1}",True,{74514DAE-38B8-4DE1-A1DE-8FD665357118}
1680059.2477,5403655.9316,109355,Blenheim,ChargeNet NZ,The Warehouse Ltd,"Cnr Kinross and Redwood Streets, Blenheim 7201, NZ",True,1,False,Unlimited,False,-41.514732,173.959433,DC,2021/01/26 00:00:00+00,2,"{DC, 25 kW, CHAdeMO, Status: Operative, Count:1},{DC, 25 kW, Type 2 CCS, Status: Operative, Count:1}",False,{56464E47-A4AF-4CDF-97F3-5EF80CE28C4A}
1483506.1653,5376158.5536,109356,Westport,ChargeNet NZ,ChargeNet NZ,"5 Adderley Street, Westport 7825, NZ",True,1,False,Unlimited,False,-41.757863,171.598685,DC,2018/12/06 00:00:00+00,2,"{DC, 50 kW, CHAdeMO, Status: Operative, Count:1},{DC, 50 kW, Type 2 CCS, Status: Operative, Count:1}",True,{0B9522C8-81A0-49AD-8545-797FF9F4B1F1}
1543953.8441,5372259.7441,109357,Murchison,ChargeNet NZ,ChargeNet NZ,"Fairfax St, Murchison 7007, NZ",True,1,False,Unlimited,False,-41.799545,172.325373,DC,2019/11/27 00:00:00+00,2,"{DC, 50 kW, CHAdeMO, Status: Operative, Count:1},{DC, 50 kW, Type 2 CCS, Status: Operative, Count:1}",True,{9F1FF692-3EF7-47AD-AD7D-54059378DBAE}
1693917.3153,5368581.867,109358,Ward,ChargeNet NZ,ChargeNet NZ,"7326 State Highway 1, Ward 7285, NZ",True,1,False,Unlimited,False,-41.829084,174.130996,DC,2019/05/01 00:00:00+00,2,"{DC, 50 kW, CHAdeMO, Status: Operative, Count:1},{DC, 50 kW, Type 2 CCS, Status: Operative, Count:1}",True,{C7D53106-B337-49E7-B1ED-6AD3EF41FB13}
1506281.9405,5336270.923,109359,Reefton,ChargeNet NZ,ChargeNet NZ,"47 Broadway, Reefton 7830, NZ",True,1,False,Unlimited,False,-42.120066,171.866254,DC,2018/10/02 00:00:00+00,2,"{DC, 25 kW, CHAdeMO, Status: Operative, Count:1},{DC, 25 kW, Type 2 CCS, Status: Operative, Count:1}",True,{A1ED7189-9A80-47E7-8D3D-E2C370623DA0}
1655929.49,5306920.0961,109360,Kaikoura,ChargeNet NZ,ChargeNet NZ,"124-128 Beach Rd, Kaikoura 7300, NZ",True,1,False,Unlimited,False,-42.387995,173.679475,DC,2018/10/26 00:00:00+00,2,"{DC, 50 kW, CHAdeMO, Status: Operative, Count:1},{DC, 50 kW, Type 2 CCS, Status: Operative, Count:1}",True,{91E27524-D629-409A-A26D-B34A96D7A813}
1656169.6512,5305326.1279,109361,Kaikoura,ChargeNet NZ,ChargeNet NZ,"51 West End, Kaikoura 7300, New Zealand",True,1,False,Unlimited,False,-42.402332,173.682548,DC,2016/10/31 00:00:00+00,2,"{DC, 50 kW, CHAdeMO, Status: Operative, Count:1},{DC, 50 kW, Type 2 CCS, Status: Inoperative, Count:1}",True,{BD1FB5EF-D9B9-4502-AB58-4A0D492215C5}
1453250.1203,5298872.0271,109362,Greymouth,ChargeNet NZ,The Warehouse Ltd,"174 Mawhera Quay, Greymouth 7805, NZ",True,1,False,Unlimited,False,-42.448596,171.215473,DC,2022/04/01 00:00:00+00,2,"{DC, 25 kW, CHAdeMO, Status: Operative, Count:1},{DC, 25 kW, Type 2 CCS, Status: Operative, Count:1}",False,{6C49973B-E484-4E39-9EFC-8E25DDC7A8D4}
1452700.7403,5298698.4809,109363,Greymouth,ChargeNet NZ,ChargeNet NZ,"13 Tarapuhi Street, Greymouth 7805, New Zealand",True,1,False,Unlimited,False,-42.450054,171.208751,DC,2017/03/16 00:00:00+00,2,"{DC, 50 kW, CHAdeMO, Status: Operative, Count:1},{DC, 50 kW, Type 2 CCS, Status: Operative, Count:1}",True,{699E75BC-84DA-446A-B38B-E7DC8F5D6318}
1433219.7289,5268620.6343,109364,Hokitika,ChargeNet NZ,ChargeNet NZ,"116 Revell Street, Hokitika 7810, NZ",True,1,False,Unlimited,False,-42.716811,170.96319,DC,2018/07/24 00:00:00+00,2,"{DC, 50 kW, Type 2 CCS, Status: Operative, Count:1},{DC, 50 kW, CHAdeMO, Status: Inoperative, Count:1}",True,{A3293584-B33C-4797-8D8F-6E222E078D9F}
1587477.4515,5264239.3919,109365,Culverden,ChargeNet NZ,ChargeNet NZ,"27A Mountain View Rd, Culverden 7392, New Zealand",True,1,False,Unlimited,False,-42.774278,172.846924,DC,2017/12/21 00:00:00+00,2,"{DC, 50 kW, CHAdeMO, Status: Operative, Count:1},{DC, 50 kW, Type 2 CCS, Status: Operative, Count:1}",True,{230B49A6-C03A-4782-A338-FBAF7E85C3C7}
1622320.3683,5259938.2967,109366,Cheviot,ChargeNet NZ,ChargeNet NZ,"4 Seddon St, Cheviot 7310, NZ",True,1,False,Unlimited,False,-42.812788,173.273014,DC,2019/05/31 00:00:00+00,2,"{DC, 50 kW, CHAdeMO, Status: Operative, Count:1},{DC, 50 kW, Type 2 CCS, Status: Operative, Count:1}",True,{3C8A0C4E-5B17-4FCE-BDD4-F6147DE9ED24}
1482342.9041,5255653.7198,109367,Otira,ChargeNet NZ,Portia Properties Ltd,"Otira Hwy, Otira 7875, New Zealand",True,1,False,Unlimited,False,-42.842644,171.560183,DC,2020/02/27 00:00:00+00,2,"{DC, 50 kW, CHAdeMO, Status: Operative, Count:1},{DC, 50 kW, Type 2 CCS, Status: Operative, Count:1}",True,{2295B036-AFA0-448C-9C93-DA5911E5D5D6}
1482768.3659,5244641.9512,109368,Arthurs Pass,ChargeNet NZ,ChargeNet NZ,"80 State Highway 73, Arthurs Pass 7875, New Zealand",True,1,False,Unlimited,False,-42.941842,171.563088,Mixed,2020/10/01 00:00:00+00,3,"{AC, 22 kW, Type 2 Socketed, Status: Operative, Count:1},{DC, 50 kW, Type 2 CCS, Status: Inoperative, Count:1},{DC, 50 kW, CHAdeMO, Status: Inoperative, Count:1}",True,{9D51E2C3-0804-42FB-9B40-E7746C361011}
1578079.822,5221768.1865,109369,Amberley,ChargeNet NZ,ChargeNet NZ,"123 Carters Rd, Amberley 7410, NZ",True,1,False,Unlimited,False,-43.156522,172.730383,DC,2023/05/15 00:00:00+00,2,"{DC, 50 kW, Type 2 CCS, Status: Operative, Count:1},{DC, 50 kW, CHAdeMO, Status: Operative, Count:1}",True,{893C140B-2436-437E-951E-F640E0A2775D}
1495646.6035,5215245.304,109370,Castle Hill,ChargeNet NZ,ChargeNet NZ,"3 Castle Hill Dr, Castle Hill 7580, New Zealand",True,1,False,Unlimited,False,-43.208364,171.715379,DC,2020/10/15 00:00:00+00,2,"{DC, 50 kW, CHAdeMO, Status: Operative, Count:1},{DC, 50 kW, Type 2 CCS, Status: Operative, Count:1}",True,{8F6588FE-BFE9-4E43-B535-C3B1679D580C}
1573384.4078,5204931.0072,109371,Ravenswood ,ChargeNet NZ,ChargeNet NZ,"10 Bob Robertson Drive, Ravenswood 7691, New Zealand",True,1,True,Unlimited,False,-43.307983,172.671818,DC,2023/06/27 00:00:00+00,4,"{DC, 50 kW, CHAdeMO, Status: Operative, Count:2},{DC, 50 kW, Type 2 CCS, Status: Operative, Count:2}",True,{1B2275E1-1E06-4D33-B4F7-E9718E1C9090}
1567465.5539,5203082.3853,109372,Rangiora,ChargeNet NZ,ChargeNet NZ,"2 Southbrook Rd, Rangiora 7400, NZ",True,1,False,Unlimited,False,-43.324396,172.598728,DC,2018/12/17 00:00:00+00,2,"{DC, 50 kW, CHAdeMO, Status: Operative, Count:1},{DC, 50 kW, Type 2 CCS, Status: Operative, Count:1}",True,{F45386CB-FDFE-461B-8BB9-5B88A885CAD1}
1513186.9463,5201118.4491,109373,Springfield,ChargeNet NZ,ChargeNet NZ,"SH 73, Springfield 7681, New Zealand",True,1,False,Unlimited,False,-43.33777,171.929037,Mixed,2020/10/22 00:00:00+00,3,"{DC, 50 kW, CHAdeMO, Status: Operative, Count:1},{AC, 22 kW, Type 2 Socketed, Status: Operative, Count:1},{DC, 50 kW, Type 2 CCS, Status: Inoperative, Count:1}",True,{E599F3A3-6D11-4151-8EB9-8B361AB0EF16}
1572465.6375,5196718.7809,109374,Kaiapoi,ChargeNet NZ,ChargeNet NZ,"31 Sewell Street, Kaiapoi 7630, New Zealand",True,1,False,Unlimited,False,-43.381896,172.660077,DC,2019/06/18 00:00:00+00,2,"{DC, 50 kW, CHAdeMO, Status: Operative, Count:1},{DC, 50 kW, Type 2 CCS, Status: Operative, Count:1}",True,{A49AB8CA-E6CB-49BB-85CF-029351385363}
1371950.2907,5192693.2592,109375,Franz Josef,ChargeNet NZ,ChargeNet NZ,"63 Cron Street, Franz Joseph Glacier 7886, New Zealand",True,1,False,Unlimited,False,-43.38398,170.184601,DC,2019/07/09 00:00:00+00,4,"{DC, 50 kW, CHAdeMO, Status: Operative, Count:1},{DC, 50 kW, Type 2 CCS, Status: Operative, Count:1},{DC, 25 kW, CHAdeMO, Status: Operative, Count:1},{DC, 25 kW, Type 2 CCS, Status: Operative, Count:1}",True,{AD4CC2BD-7DDF-4E18-9B46-64001B511CEB}
1569440.661,5187992.8714,109376,Northwood,ChargeNet NZ,ChargeNet NZ,"2 Mounter Ave, Christchurch 8051, New Zealand",True,1,False,Unlimited,False,-43.460349,172.622245,DC,2016/12/04 00:00:00+00,2,"{DC, 50 kW, CHAdeMO, Status: Operative, Count:1},{DC, 50 kW, Type 2 CCS, Status: Inoperative, Count:1}",True,{6323DDC8-287A-4753-BFCC-81A0BDB12FB1}
